{ "type" : "FeatureCollection", "features" : [ { "_id" : { "$oid" : "54a84fa866d8bd8d0faa353c" }, "type" : "Feature", "geometry" : { "type" : "Point", "coordinates" : [ 21.013890, 52.246390 ] }, "properties" : { "name" : "RTV: Warszawa *Kosciol Sw. Anny*" } }, { "_id" : { "$oid" : "54a84fa866d8bd8d0faa3537" }, "type" : "Feature", "geometry" : { "type" : "Point", "coordinates" : [ 21.002220, 52.244170 ] }, "properties" : { "name" : "RTV: Warszawa *Blekitny Wiezowiec*" } }, { "_id" : { "$oid" : "54a84fa866d8bd8d0faa353e" }, "type" : "Feature", "geometry" : { "type" : "Point", "coordinates" : [ 21.006110, 52.231670 ] }, "properties" : { "name" : "RTV: Warszawa *Palac Kultury i Nauki*" } }, { "_id" : { "$oid" : "54a84fa866d8bd8d0faa3536" }, "type" : "Feature", "geometry" : { "type" : "Point", "coordinates" : [ 20.999720, 52.232780 ] }, "properties" : { "name" : "RTV: Warszawa *Budynek Rondo 1*" } }, { "_id" : { "$oid" : "54a84fa866d8bd8d0faa3539" }, "type" : "Feature", "geometry" : { "type" : "Point", "coordinates" : [ 21.004720, 52.227780 ] }, "properties" : { "name" : "RTV: Warszawa *Hotel Marriott*" } }, { "_id" : { "$oid" : "54a84fa866d8bd8d0faa353b" }, "type" : "Feature", "geometry" : { "type" : "Point", "coordinates" : [ 20.993330, 52.294720 ] }, "properties" : { "name" : "RTV: Warszawa *Komin EC Zeran*" } }, { "_id" : { "$oid" : "54a84fa866d8bd8d0faa3538" }, "type" : "Feature", "geometry" : { "type" : "Point", "coordinates" : [ 20.963610, 52.218610 ] }, "properties" : { "name" : "RTV: Warszawa *Dworzec Zachodni*" } }, { "_id" : { "$oid" : "54a84fa866d8bd8d0faa3541" }, "type" : "Feature", "geometry" : { "type" : "Point", "coordinates" : [ 21.002500, 52.194170 ] }, "properties" : { "name" : "RTV: Warszawa *ul. Woloska*" } }, { "_id" : { "$oid" : "54a84fa866d8bd8d0faa353a" }, "type" : "Feature", "geometry" : { "type" : "Point", "coordinates" : [ 21.128890, 52.268060 ] }, "properties" : { "name" : "RTV: Warszawa *Komin C Kaweczyn*" } }, { "_id" : { "$oid" : "54a84fa866d8bd8d0faa3535" }, "type" : "Feature", "geometry" : { "type" : "Point", "coordinates" : [ 21.012220, 52.153330 ] }, "properties" : { "name" : "RTV: Warszawa *Budynek Netia*" } }, { "_id" : { "$oid" : "54a84fa866d8bd8d0faa3540" }, "type" : "Feature", "geometry" : { "type" : "Point", "coordinates" : [ 21.044720, 52.144720 ] }, "properties" : { "name" : "RTV: Warszawa *ul. Dereniowa*" } }, { "_id" : { "$oid" : "54a84fa866d8bd8d0faa33da" }, "type" : "Feature", "geometry" : { "type" : "Point", "coordinates" : [ 20.935830, 52.419720 ] }, "properties" : { "name" : "RTV: Legionowo *Komin PEC*" } }, { "_id" : { "$oid" : "54a84fa866d8bd8d0faa3560" }, "type" : "Feature", "geometry" : { "type" : "Point", "coordinates" : [ 21.265560, 52.357220 ] }, "properties" : { "name" : "RTV: Wolomin *Komin ZEC*" } }, { "_id" : { "$oid" : "54a84fa866d8bd8d0faa3468" }, "type" : "Feature", "geometry" : { "type" : "Point", "coordinates" : [ 21.024170, 52.075560 ] }, "properties" : { "name" : "RTV: Piaseczno [miasto]" } }, { "_id" : { "$oid" : "54a84fa866d8bd8d0faa3482" }, "type" : "Feature", "geometry" : { "type" : "Point", "coordinates" : [ 20.743060, 52.175280 ] }, "properties" : { "name" : "RTV: Pruszkow *Komin b. EC Pruszkow II*" } }, { "_id" : { "$oid" : "54a84fa866d8bd8d0faa353f" }, "type" : "Feature", "geometry" : { "type" : "Point", "coordinates" : [ 20.883060, 52.072780 ] }, "properties" : { "name" : "RTV: Warszawa *Raszyn*" } }, { "_id" : { "$oid" : "54a84fa866d8bd8d0faa353d" }, "type" : "Feature", "geometry" : { "type" : "Point", "coordinates" : [ 20.883610, 52.037500 ] }, "properties" : { "name" : "RTV: Warszawa *Leszczynka*" } }, { "_id" : { "$oid" : "54a84fa866d8bd8d0faa3377" }, "type" : "Feature", "geometry" : { "type" : "Point", "coordinates" : [ 21.268890, 52.077220 ] }, "properties" : { "name" : "RTV: Karczew *Komin KPEC*" } }, { "_id" : { "$oid" : "54a84fa866d8bd8d0faa3336" }, "type" : "Feature", "geometry" : { "type" : "Point", "coordinates" : [ 20.614170, 52.110560 ] }, "properties" : { "name" : "RTV: Grodzisk Maz. *Komin Gedeon Richter*" } }, { "_id" : { "$oid" : "54a84fa866d8bd8d0faa3511" }, "type" : "Feature", "geometry" : { "type" : "Point", "coordinates" : [ 20.828890, 51.970560 ] }, "properties" : { "name" : "RTV: Tarczyn *Komin Binder International*" } }, { "_id" : { "$oid" : "54a84fa866d8bd8d0faa35cb" }, "type" : "Feature", "geometry" : { "type" : "Point", "coordinates" : [ 20.448330, 52.070280 ] }, "properties" : { "name" : "RTV: Zyrardow *Komin PEC Zyrardow*" } }, { "_id" : { "$oid" : "54a84fa866d8bd8d0faa3337" }, "type" : "Feature", "geometry" : { "type" : "Point", "coordinates" : [ 20.863890, 51.868060 ] }, "properties" : { "name" : "RTV: Grojec *Kosciol Sw. Mikolaja*" } }, { "_id" : { "$oid" : "54a84fa866d8bd8d0faa3338" }, "type" : "Feature", "geometry" : { "type" : "Point", "coordinates" : [ 20.855830, 51.862220 ] }, "properties" : { "name" : "RTV: Grojec *ul. Mogielnicka*" } }, { "_id" : { "$oid" : "54a84fa866d8bd8d0faa3415" }, "type" : "Feature", "geometry" : { "type" : "Point", "coordinates" : [ 20.530000, 51.965560 ] }, "properties" : { "name" : "RTV: Mszczonow *Wieza Cisnien*" } }, { "_id" : { "$oid" : "54a84fa866d8bd8d0faa356e" }, "type" : "Feature", "geometry" : { "type" : "Point", "coordinates" : [ 21.443060, 52.609170 ] }, "properties" : { "name" : "RTV: Wyszkow *Komin PEC*" } }, { "_id" : { "$oid" : "54a84fa866d8bd8d0faa34da" }, "type" : "Feature", "geometry" : { "type" : "Point", "coordinates" : [ 20.274720, 52.257500 ] }, "properties" : { "name" : "RTV: Sochaczew *Komin d. ZWCh Chemitex*" } }, { "_id" : { "$oid" : "54a84fa866d8bd8d0faa3339" }, "type" : "Feature", "geometry" : { "type" : "Point", "coordinates" : [ 20.957780, 51.756670 ] }, "properties" : { "name" : "RTV: Grojec *Zbrosza Duza*" } }, { "_id" : { "$oid" : "54a84fa866d8bd8d0faa3496" }, "type" : "Feature", "geometry" : { "type" : "Point", "coordinates" : [ 20.361110, 52.615830 ] }, "properties" : { "name" : "RTV: Plonsk *Komin PEC*" } }, { "_id" : { "$oid" : "54a84fa866d8bd8d0faa3495" }, "type" : "Feature", "geometry" : { "type" : "Point", "coordinates" : [ 20.374170, 52.628330 ] }, "properties" : { "name" : "RTV: Plonsk *Grunwaldzka*" } }, { "_id" : { "$oid" : "54a84fa866d8bd8d0faa34d6" }, "type" : "Feature", "geometry" : { "type" : "Point", "coordinates" : [ 20.233330, 52.015560 ] }, "properties" : { "name" : "RTV: Skierniewice *Bartniki*" } }, { "_id" : { "$oid" : "54a84fa866d8bd8d0faa330c" }, "type" : "Feature", "geometry" : { "type" : "Point", "coordinates" : [ 21.711390, 51.847500 ] }, "properties" : { "name" : "RTV: Garwolin *Gorzno*" } }, { "_id" : { "$oid" : "54a84fa866d8bd8d0faa34d7" }, "type" : "Feature", "geometry" : { "type" : "Point", "coordinates" : [ 20.169720, 51.971670 ] }, "properties" : { "name" : "RTV: Skierniewice *Komin OSM*" } }, { "_id" : { "$oid" : "54a84fa866d8bd8d0faa34d8" }, "type" : "Feature", "geometry" : { "type" : "Point", "coordinates" : [ 20.143330, 51.973330 ] }, "properties" : { "name" : "RTV: Skierniewice *Kosciol Najsw. Serca Pana Jezusa*" } }, { "_id" : { "$oid" : "54a84fa866d8bd8d0faa354a" }, "type" : "Feature", "geometry" : { "type" : "Point", "coordinates" : [ 22.006390, 52.414440 ] }, "properties" : { "name" : "RTV: Wegrow *Komin ZM Hochland*" } }, { "_id" : { "$oid" : "54a84fa866d8bd8d0faa32da" }, "type" : "Feature", "geometry" : { "type" : "Point", "coordinates" : [ 20.603890, 52.856390 ] }, "properties" : { "name" : "RTV: Ciechanow *Komin PEC*" } }, { "_id" : { "$oid" : "54a84fa866d8bd8d0faa34a9" }, "type" : "Feature", "geometry" : { "type" : "Point", "coordinates" : [ 20.271110, 51.781390 ] }, "properties" : { "name" : "RTV: Rawa Mazowiecka *Budynek Logis*" } }, { "_id" : { "$oid" : "54a84fa866d8bd8d0faa345d" }, "type" : "Feature", "geometry" : { "type" : "Point", "coordinates" : [ 21.402220, 52.884170 ] }, "properties" : { "name" : "RTV: Ostroleka *Rozan*" } }, { "_id" : { "$oid" : "54a84fa866d8bd8d0faa32db" }, "type" : "Feature", "geometry" : { "type" : "Point", "coordinates" : [ 20.580000, 52.871940 ] }, "properties" : { "name" : "RTV: Ciechanow *Monte Cassino*" } }, { "_id" : { "$oid" : "54a84fa866d8bd8d0faa34aa" }, "type" : "Feature", "geometry" : { "type" : "Point", "coordinates" : [ 20.262220, 51.772780 ] }, "properties" : { "name" : "RTV: Rawa Mazowiecka *ul. Mszczonowska*" } }, { "_id" : { "$oid" : "54a84fa866d8bd8d0faa35b2" }, "type" : "Feature", "geometry" : { "type" : "Point", "coordinates" : [ 19.943330, 52.116390 ] }, "properties" : { "name" : "RTV: Lowicz *ul. Seminaryjna*" } }, { "_id" : { "$oid" : "54a84fa866d8bd8d0faa35c5" }, "type" : "Feature", "geometry" : { "type" : "Point", "coordinates" : [ 21.893890, 51.807780 ] }, "properties" : { "name" : "RTV: Zelechow *ul. Traugutta*" } }, { "_id" : { "$oid" : "54a84fa866d8bd8d0faa34db" }, "type" : "Feature", "geometry" : { "type" : "Point", "coordinates" : [ 22.098330, 52.546110 ] }, "properties" : { "name" : "RTV: Sokolow Podlaski *Chruszczewka*" } }, { "_id" : { "$oid" : "54a84fa866d8bd8d0faa33a8" }, "type" : "Feature", "geometry" : { "type" : "Point", "coordinates" : [ 21.530830, 51.589440 ] }, "properties" : { "name" : "RTV: Kozienice *Komin ZEC*" } }, { "_id" : { "$oid" : "54a84fa866d8bd8d0faa3483" }, "type" : "Feature", "geometry" : { "type" : "Point", "coordinates" : [ 20.863890, 53.006670 ] }, "properties" : { "name" : "RTV: Przasnysz *Szosa Ciechanowska*" } }, { "_id" : { "$oid" : "54a84fa866d8bd8d0faa3453" }, "type" : "Feature", "geometry" : { "type" : "Point", "coordinates" : [ 21.878060, 52.818060 ] }, "properties" : { "name" : "RTV: Ostrow Mazowiecka *Komin Forte*" } }, { "_id" : { "$oid" : "54a84fa866d8bd8d0faa34c8" }, "type" : "Feature", "geometry" : { "type" : "Point", "coordinates" : [ 22.277220, 52.168330 ] }, "properties" : { "name" : "RTV: Siedlce *Budynek Urzedu Woj.*" } }, { "_id" : { "$oid" : "54a84fa866d8bd8d0faa34c9" }, "type" : "Feature", "geometry" : { "type" : "Point", "coordinates" : [ 22.281390, 52.171110 ] }, "properties" : { "name" : "RTV: Siedlce *Blonie*" } }, { "_id" : { "$oid" : "54a84fa866d8bd8d0faa3454" }, "type" : "Feature", "geometry" : { "type" : "Point", "coordinates" : [ 21.928610, 52.824440 ] }, "properties" : { "name" : "RTV: Ostrow Mazowiecka *Podborze*" } }, { "_id" : { "$oid" : "54a84fa866d8bd8d0faa34ca" }, "type" : "Feature", "geometry" : { "type" : "Point", "coordinates" : [ 22.306390, 52.157220 ] }, "properties" : { "name" : "RTV: Siedlce *Komin PEC*" } }, { "_id" : { "$oid" : "54a84fa866d8bd8d0faa34cb" }, "type" : "Feature", "geometry" : { "type" : "Point", "coordinates" : [ 22.310560, 52.156110 ] }, "properties" : { "name" : "RTV: Siedlce *Komin Polimex-Mostostal*" } }, { "_id" : { "$oid" : "54a84fa866d8bd8d0faa349e" }, "type" : "Feature", "geometry" : { "type" : "Point", "coordinates" : [ 21.200560, 51.442780 ] }, "properties" : { "name" : "RTV: Radom *Komin CM Polnoc*" } }, { "_id" : { "$oid" : "54a84fa866d8bd8d0faa349c" }, "type" : "Feature", "geometry" : { "type" : "Point", "coordinates" : [ 21.159440, 51.421110 ] }, "properties" : { "name" : "RTV: Radom *Hotel Asystencki*" } }, { "_id" : { "$oid" : "54a84fa866d8bd8d0faa34a0" }, "type" : "Feature", "geometry" : { "type" : "Point", "coordinates" : [ 21.117220, 51.408890 ] }, "properties" : { "name" : "RTV: Radom *Wacyn*" } }, { "_id" : { "$oid" : "54a84fa866d8bd8d0faa3494" }, "type" : "Feature", "geometry" : { "type" : "Point", "coordinates" : [ 19.700000, 52.550000 ] }, "properties" : { "name" : "RTV: Plock [miasto]" } }, { "_id" : { "$oid" : "54a84fa866d8bd8d0faa3493" }, "type" : "Feature", "geometry" : { "type" : "Point", "coordinates" : [ 19.696940, 52.549170 ] }, "properties" : { "name" : "RTV: Plock *ul. Kochanowskiego*" } }, { "_id" : { "$oid" : "54a84fa866d8bd8d0faa34a1" }, "type" : "Feature", "geometry" : { "type" : "Point", "coordinates" : [ 21.150000, 51.400000 ] }, "properties" : { "name" : "RTV: Radom [miasto]" } }, { "_id" : { "$oid" : "54a84fa866d8bd8d0faa34b4" }, "type" : "Feature", "geometry" : { "type" : "Point", "coordinates" : [ 21.968330, 51.623890 ] }, "properties" : { "name" : "RTV: Ryki *Janiszewska*" } }, { "_id" : { "$oid" : "54a84fa866d8bd8d0faa348f" }, "type" : "Feature", "geometry" : { "type" : "Point", "coordinates" : [ 19.672780, 52.551670 ] }, "properties" : { "name" : "RTV: Plock *Dom Studencki Wczesniak*" } }, { "_id" : { "$oid" : "54a84fa866d8bd8d0faa345a" }, "type" : "Feature", "geometry" : { "type" : "Point", "coordinates" : [ 21.531670, 53.074720 ] }, "properties" : { "name" : "RTV: Ostroleka *Grabowo*" } }, { "_id" : { "$oid" : "54a84fa866d8bd8d0faa3490" }, "type" : "Feature", "geometry" : { "type" : "Point", "coordinates" : [ 19.659170, 52.527780 ] }, "properties" : { "name" : "RTV: Plock *Komin b. mleczarni Mitex*" } }, { "_id" : { "$oid" : "54a84fa866d8bd8d0faa3491" }, "type" : "Feature", "geometry" : { "type" : "Point", "coordinates" : [ 19.688330, 52.583610 ] }, "properties" : { "name" : "RTV: Plock *Komin Orlen*" } }, { "_id" : { "$oid" : "54a84fa866d8bd8d0faa345c" }, "type" : "Feature", "geometry" : { "type" : "Point", "coordinates" : [ 21.577500, 53.073330 ] }, "properties" : { "name" : "RTV: Ostroleka *Kosciol Zbawiciela Swiata*" } }, { "_id" : { "$oid" : "54a84fa866d8bd8d0faa345b" }, "type" : "Feature", "geometry" : { "type" : "Point", "coordinates" : [ 21.572220, 53.081390 ] }, "properties" : { "name" : "RTV: Ostroleka *Kopernika*" } } ] }