{ "type" : "FeatureCollection", "features" : [ { "_id" : { "$oid" : "54a59240cb51fca60038dafa" }, "type" : "Feature", "geometry" : { "type" : "Point", "coordinates" : [ 20.999720, 52.232780 ] }, "properties" : { "name" : "RTV: Warszawa *Budynek Rondo 1*" } }, { "_id" : { "$oid" : "54a59240cb51fca60038db02" }, "type" : "Feature", "geometry" : { "type" : "Point", "coordinates" : [ 21.006110, 52.231670 ] }, "properties" : { "name" : "RTV: Warszawa *Palac Kultury i Nauki*" } }, { "_id" : { "$oid" : "54a59240cb51fca60038dafd" }, "type" : "Feature", "geometry" : { "type" : "Point", "coordinates" : [ 21.004720, 52.227780 ] }, "properties" : { "name" : "RTV: Warszawa *Hotel Marriott*" } }, { "_id" : { "$oid" : "54a59240cb51fca60038dafb" }, "type" : "Feature", "geometry" : { "type" : "Point", "coordinates" : [ 21.002220, 52.244170 ] }, "properties" : { "name" : "RTV: Warszawa *Blekitny Wiezowiec*" } }, { "_id" : { "$oid" : "54a59240cb51fca60038db00" }, "type" : "Feature", "geometry" : { "type" : "Point", "coordinates" : [ 21.013890, 52.246390 ] }, "properties" : { "name" : "RTV: Warszawa *Kosciol Sw. Anny*" } }, { "_id" : { "$oid" : "54a59240cb51fca60038dafc" }, "type" : "Feature", "geometry" : { "type" : "Point", "coordinates" : [ 20.963610, 52.218610 ] }, "properties" : { "name" : "RTV: Warszawa *Dworzec Zachodni*" } }, { "_id" : { "$oid" : "54a59240cb51fca60038db05" }, "type" : "Feature", "geometry" : { "type" : "Point", "coordinates" : [ 21.002500, 52.194170 ] }, "properties" : { "name" : "RTV: Warszawa *ul. Woloska*" } }, { "_id" : { "$oid" : "54a59240cb51fca60038daff" }, "type" : "Feature", "geometry" : { "type" : "Point", "coordinates" : [ 20.993330, 52.294720 ] }, "properties" : { "name" : "RTV: Warszawa *Komin EC Zeran*" } }, { "_id" : { "$oid" : "54a59240cb51fca60038daf9" }, "type" : "Feature", "geometry" : { "type" : "Point", "coordinates" : [ 21.012220, 52.153330 ] }, "properties" : { "name" : "RTV: Warszawa *Budynek Netia*" } }, { "_id" : { "$oid" : "54a59240cb51fca60038dafe" }, "type" : "Feature", "geometry" : { "type" : "Point", "coordinates" : [ 21.128890, 52.268060 ] }, "properties" : { "name" : "RTV: Warszawa *Komin C Kaweczyn*" } }, { "_id" : { "$oid" : "54a59240cb51fca60038db04" }, "type" : "Feature", "geometry" : { "type" : "Point", "coordinates" : [ 21.044720, 52.144720 ] }, "properties" : { "name" : "RTV: Warszawa *ul. Dereniowa*" } }, { "_id" : { "$oid" : "54a59240cb51fca60038da2c" }, "type" : "Feature", "geometry" : { "type" : "Point", "coordinates" : [ 21.024170, 52.075560 ] }, "properties" : { "name" : "RTV: Piaseczno [miasto]" } }, { "_id" : { "$oid" : "54a59240cb51fca60038da46" }, "type" : "Feature", "geometry" : { "type" : "Point", "coordinates" : [ 20.743060, 52.175280 ] }, "properties" : { "name" : "RTV: Pruszkow *Komin b. EC Pruszkow II*" } }, { "_id" : { "$oid" : "54a59240cb51fca60038db03" }, "type" : "Feature", "geometry" : { "type" : "Point", "coordinates" : [ 20.883060, 52.072780 ] }, "properties" : { "name" : "RTV: Warszawa *Raszyn*" } }, { "_id" : { "$oid" : "54a59240cb51fca60038d99e" }, "type" : "Feature", "geometry" : { "type" : "Point", "coordinates" : [ 20.935830, 52.419720 ] }, "properties" : { "name" : "RTV: Legionowo *Komin PEC*" } }, { "_id" : { "$oid" : "54a59240cb51fca60038db24" }, "type" : "Feature", "geometry" : { "type" : "Point", "coordinates" : [ 21.265560, 52.357220 ] }, "properties" : { "name" : "RTV: Wolomin *Komin ZEC*" } }, { "_id" : { "$oid" : "54a59240cb51fca60038db01" }, "type" : "Feature", "geometry" : { "type" : "Point", "coordinates" : [ 20.883610, 52.037500 ] }, "properties" : { "name" : "RTV: Warszawa *Leszczynka*" } }, { "_id" : { "$oid" : "54a59240cb51fca60038d93b" }, "type" : "Feature", "geometry" : { "type" : "Point", "coordinates" : [ 21.268890, 52.077220 ] }, "properties" : { "name" : "RTV: Karczew *Komin KPEC*" } }, { "_id" : { "$oid" : "54a59240cb51fca60038d8fa" }, "type" : "Feature", "geometry" : { "type" : "Point", "coordinates" : [ 20.614170, 52.110560 ] }, "properties" : { "name" : "RTV: Grodzisk Maz. *Komin Gedeon Richter*" } }, { "_id" : { "$oid" : "54a59240cb51fca60038dad5" }, "type" : "Feature", "geometry" : { "type" : "Point", "coordinates" : [ 20.828890, 51.970560 ] }, "properties" : { "name" : "RTV: Tarczyn *Komin Binder International*" } }, { "_id" : { "$oid" : "54a59240cb51fca60038d8fb" }, "type" : "Feature", "geometry" : { "type" : "Point", "coordinates" : [ 20.863890, 51.868060 ] }, "properties" : { "name" : "RTV: Grojec *Kosciol Sw. Mikolaja*" } }, { "_id" : { "$oid" : "54a59240cb51fca60038db8f" }, "type" : "Feature", "geometry" : { "type" : "Point", "coordinates" : [ 20.448330, 52.070280 ] }, "properties" : { "name" : "RTV: Zyrardow *Komin PEC Zyrardow*" } }, { "_id" : { "$oid" : "54a59240cb51fca60038d8fc" }, "type" : "Feature", "geometry" : { "type" : "Point", "coordinates" : [ 20.855830, 51.862220 ] }, "properties" : { "name" : "RTV: Grojec *ul. Mogielnicka*" } }, { "_id" : { "$oid" : "54a59240cb51fca60038d9d9" }, "type" : "Feature", "geometry" : { "type" : "Point", "coordinates" : [ 20.530000, 51.965560 ] }, "properties" : { "name" : "RTV: Mszczonow *Wieza Cisnien*" } }, { "_id" : { "$oid" : "54a59240cb51fca60038da9e" }, "type" : "Feature", "geometry" : { "type" : "Point", "coordinates" : [ 20.274720, 52.257500 ] }, "properties" : { "name" : "RTV: Sochaczew *Komin d. ZWCh Chemitex*" } }, { "_id" : { "$oid" : "54a59240cb51fca60038db32" }, "type" : "Feature", "geometry" : { "type" : "Point", "coordinates" : [ 21.443060, 52.609170 ] }, "properties" : { "name" : "RTV: Wyszkow *Komin PEC*" } }, { "_id" : { "$oid" : "54a59240cb51fca60038d8fd" }, "type" : "Feature", "geometry" : { "type" : "Point", "coordinates" : [ 20.957780, 51.756670 ] }, "properties" : { "name" : "RTV: Grojec *Zbrosza Duza*" } }, { "_id" : { "$oid" : "54a59240cb51fca60038da9a" }, "type" : "Feature", "geometry" : { "type" : "Point", "coordinates" : [ 20.233330, 52.015560 ] }, "properties" : { "name" : "RTV: Skierniewice *Bartniki*" } }, { "_id" : { "$oid" : "54a59240cb51fca60038da5a" }, "type" : "Feature", "geometry" : { "type" : "Point", "coordinates" : [ 20.361110, 52.615830 ] }, "properties" : { "name" : "RTV: Plonsk *Komin PEC*" } }, { "_id" : { "$oid" : "54a59240cb51fca60038da59" }, "type" : "Feature", "geometry" : { "type" : "Point", "coordinates" : [ 20.374170, 52.628330 ] }, "properties" : { "name" : "RTV: Plonsk *Grunwaldzka*" } }, { "_id" : { "$oid" : "54a59240cb51fca60038da9b" }, "type" : "Feature", "geometry" : { "type" : "Point", "coordinates" : [ 20.169720, 51.971670 ] }, "properties" : { "name" : "RTV: Skierniewice *Komin OSM*" } }, { "_id" : { "$oid" : "54a59240cb51fca60038d8d0" }, "type" : "Feature", "geometry" : { "type" : "Point", "coordinates" : [ 21.711390, 51.847500 ] }, "properties" : { "name" : "RTV: Garwolin *Gorzno*" } }, { "_id" : { "$oid" : "54a59240cb51fca60038da9c" }, "type" : "Feature", "geometry" : { "type" : "Point", "coordinates" : [ 20.143330, 51.973330 ] }, "properties" : { "name" : "RTV: Skierniewice *Kosciol Najsw. Serca Pana Jezusa*" } }, { "_id" : { "$oid" : "54a59240cb51fca60038da6d" }, "type" : "Feature", "geometry" : { "type" : "Point", "coordinates" : [ 20.271110, 51.781390 ] }, "properties" : { "name" : "RTV: Rawa Mazowiecka *Budynek Logis*" } }, { "_id" : { "$oid" : "54a59240cb51fca60038db0e" }, "type" : "Feature", "geometry" : { "type" : "Point", "coordinates" : [ 22.006390, 52.414440 ] }, "properties" : { "name" : "RTV: Wegrow *Komin ZM Hochland*" } }, { "_id" : { "$oid" : "54a59240cb51fca60038da6e" }, "type" : "Feature", "geometry" : { "type" : "Point", "coordinates" : [ 20.262220, 51.772780 ] }, "properties" : { "name" : "RTV: Rawa Mazowiecka *ul. Mszczonowska*" } }, { "_id" : { "$oid" : "54a59240cb51fca60038db76" }, "type" : "Feature", "geometry" : { "type" : "Point", "coordinates" : [ 19.943330, 52.116390 ] }, "properties" : { "name" : "RTV: Lowicz *ul. Seminaryjna*" } }, { "_id" : { "$oid" : "54a59240cb51fca60038d89e" }, "type" : "Feature", "geometry" : { "type" : "Point", "coordinates" : [ 20.603890, 52.856390 ] }, "properties" : { "name" : "RTV: Ciechanow *Komin PEC*" } }, { "_id" : { "$oid" : "54a59240cb51fca60038d89f" }, "type" : "Feature", "geometry" : { "type" : "Point", "coordinates" : [ 20.580000, 52.871940 ] }, "properties" : { "name" : "RTV: Ciechanow *Monte Cassino*" } }, { "_id" : { "$oid" : "54a59240cb51fca60038db89" }, "type" : "Feature", "geometry" : { "type" : "Point", "coordinates" : [ 21.893890, 51.807780 ] }, "properties" : { "name" : "RTV: Zelechow *ul. Traugutta*" } }, { "_id" : { "$oid" : "54a59240cb51fca60038da21" }, "type" : "Feature", "geometry" : { "type" : "Point", "coordinates" : [ 21.402220, 52.884170 ] }, "properties" : { "name" : "RTV: Ostroleka *Rozan*" } }, { "_id" : { "$oid" : "54a59240cb51fca60038d96c" }, "type" : "Feature", "geometry" : { "type" : "Point", "coordinates" : [ 21.530830, 51.589440 ] }, "properties" : { "name" : "RTV: Kozienice *Komin ZEC*" } }, { "_id" : { "$oid" : "54a59240cb51fca60038da9f" }, "type" : "Feature", "geometry" : { "type" : "Point", "coordinates" : [ 22.098330, 52.546110 ] }, "properties" : { "name" : "RTV: Sokolow Podlaski *Chruszczewka*" } }, { "_id" : { "$oid" : "54a59240cb51fca60038da47" }, "type" : "Feature", "geometry" : { "type" : "Point", "coordinates" : [ 20.863890, 53.006670 ] }, "properties" : { "name" : "RTV: Przasnysz *Szosa Ciechanowska*" } }, { "_id" : { "$oid" : "54a59240cb51fca60038da8c" }, "type" : "Feature", "geometry" : { "type" : "Point", "coordinates" : [ 22.277220, 52.168330 ] }, "properties" : { "name" : "RTV: Siedlce *Budynek Urzedu Woj.*" } }, { "_id" : { "$oid" : "54a59240cb51fca60038da8d" }, "type" : "Feature", "geometry" : { "type" : "Point", "coordinates" : [ 22.281390, 52.171110 ] }, "properties" : { "name" : "RTV: Siedlce *Blonie*" } }, { "_id" : { "$oid" : "54a59240cb51fca60038da17" }, "type" : "Feature", "geometry" : { "type" : "Point", "coordinates" : [ 21.878060, 52.818060 ] }, "properties" : { "name" : "RTV: Ostrow Mazowiecka *Komin Forte*" } }, { "_id" : { "$oid" : "54a59240cb51fca60038da62" }, "type" : "Feature", "geometry" : { "type" : "Point", "coordinates" : [ 21.200560, 51.442780 ] }, "properties" : { "name" : "RTV: Radom *Komin CM Polnoc*" } }, { "_id" : { "$oid" : "54a59240cb51fca60038da8e" }, "type" : "Feature", "geometry" : { "type" : "Point", "coordinates" : [ 22.306390, 52.157220 ] }, "properties" : { "name" : "RTV: Siedlce *Komin PEC*" } }, { "_id" : { "$oid" : "54a59240cb51fca60038da8f" }, "type" : "Feature", "geometry" : { "type" : "Point", "coordinates" : [ 22.310560, 52.156110 ] }, "properties" : { "name" : "RTV: Siedlce *Komin Polimex-Mostostal*" } }, { "_id" : { "$oid" : "54a59240cb51fca60038da60" }, "type" : "Feature", "geometry" : { "type" : "Point", "coordinates" : [ 21.159440, 51.421110 ] }, "properties" : { "name" : "RTV: Radom *Hotel Asystencki*" } }, { "_id" : { "$oid" : "54a59240cb51fca60038da18" }, "type" : "Feature", "geometry" : { "type" : "Point", "coordinates" : [ 21.928610, 52.824440 ] }, "properties" : { "name" : "RTV: Ostrow Mazowiecka *Podborze*" } }, { "_id" : { "$oid" : "54a59240cb51fca60038da64" }, "type" : "Feature", "geometry" : { "type" : "Point", "coordinates" : [ 21.117220, 51.408890 ] }, "properties" : { "name" : "RTV: Radom *Wacyn*" } }, { "_id" : { "$oid" : "54a59240cb51fca60038da65" }, "type" : "Feature", "geometry" : { "type" : "Point", "coordinates" : [ 21.150000, 51.400000 ] }, "properties" : { "name" : "RTV: Radom [miasto]" } }, { "_id" : { "$oid" : "54a59240cb51fca60038da78" }, "type" : "Feature", "geometry" : { "type" : "Point", "coordinates" : [ 21.968330, 51.623890 ] }, "properties" : { "name" : "RTV: Ryki *Janiszewska*" } }, { "_id" : { "$oid" : "54a59240cb51fca60038da58" }, "type" : "Feature", "geometry" : { "type" : "Point", "coordinates" : [ 19.700000, 52.550000 ] }, "properties" : { "name" : "RTV: Plock [miasto]" } }, { "_id" : { "$oid" : "54a59240cb51fca60038da57" }, "type" : "Feature", "geometry" : { "type" : "Point", "coordinates" : [ 19.696940, 52.549170 ] }, "properties" : { "name" : "RTV: Plock *ul. Kochanowskiego*" } }, { "_id" : { "$oid" : "54a59240cb51fca60038da54" }, "type" : "Feature", "geometry" : { "type" : "Point", "coordinates" : [ 19.659170, 52.527780 ] }, "properties" : { "name" : "RTV: Plock *Komin b. mleczarni Mitex*" } }, { "_id" : { "$oid" : "54a59240cb51fca60038da53" }, "type" : "Feature", "geometry" : { "type" : "Point", "coordinates" : [ 19.672780, 52.551670 ] }, "properties" : { "name" : "RTV: Plock *Dom Studencki Wczesniak*" } }, { "_id" : { "$oid" : "54a59240cb51fca60038da55" }, "type" : "Feature", "geometry" : { "type" : "Point", "coordinates" : [ 19.688330, 52.583610 ] }, "properties" : { "name" : "RTV: Plock *Komin Orlen*" } }, { "_id" : { "$oid" : "54a59240cb51fca60038da63" }, "type" : "Feature", "geometry" : { "type" : "Point", "coordinates" : [ 21.107220, 51.355280 ] }, "properties" : { "name" : "RTV: Radom *Komin CM Poludnie*" } } ] }