{ "type" : "FeatureCollection", "features" : [ { "_id" : { "$oid" : "54a84fa866d8bd8d0faa32d7" }, "type" : "Feature", "geometry" : { "type" : "Point", "coordinates" : [ 17.591110, 53.690560 ] }, "properties" : { "name" : "RTV: Chojnice *Komin Cieplowni Rindipol*" } }, { "_id" : { "$oid" : "54a84fa866d8bd8d0faa35b8" }, "type" : "Feature", "geometry" : { "type" : "Point", "coordinates" : [ 18.370560, 53.463610 ] }, "properties" : { "name" : "RTV: Swiecie *Dolsk*" } }, { "_id" : { "$oid" : "54a84fa866d8bd8d0faa32d8" }, "type" : "Feature", "geometry" : { "type" : "Point", "coordinates" : [ 17.581390, 53.693610 ] }, "properties" : { "name" : "RTV: Chojnice *ul. Towarowa*" } }, { "_id" : { "$oid" : "54a84fa866d8bd8d0faa32d6" }, "type" : "Feature", "geometry" : { "type" : "Point", "coordinates" : [ 17.563060, 53.695280 ] }, "properties" : { "name" : "RTV: Chojnice *Bazylika Mniejsza*" } }, { "_id" : { "$oid" : "54a84fa866d8bd8d0faa3358" }, "type" : "Feature", "geometry" : { "type" : "Point", "coordinates" : [ 19.582780, 53.603890 ] }, "properties" : { "name" : "RTV: Ilawa *PBO*" } }, { "_id" : { "$oid" : "54a84fa866d8bd8d0faa3510" }, "type" : "Feature", "geometry" : { "type" : "Point", "coordinates" : [ 17.019720, 54.474440 ] }, "properties" : { "name" : "RTV: Slupsk *Komin ZPZ Stolon*" } }, { "_id" : { "$oid" : "54a84fa866d8bd8d0faa350f" }, "type" : "Feature", "geometry" : { "type" : "Point", "coordinates" : [ 17.014440, 54.480000 ] }, "properties" : { "name" : "RTV: Slupsk *Komin Sydkraft EC Slupsk KR-2*" } }, { "_id" : { "$oid" : "54a84fa866d8bd8d0faa3356" }, "type" : "Feature", "geometry" : { "type" : "Point", "coordinates" : [ 19.579440, 53.583330 ] }, "properties" : { "name" : "RTV: Ilawa *Budynek IPB*" } }, { "_id" : { "$oid" : "54a84fa866d8bd8d0faa350b" }, "type" : "Feature", "geometry" : { "type" : "Point", "coordinates" : [ 17.007780, 54.469440 ] }, "properties" : { "name" : "RTV: Slupsk *Banacha*" } }, { "_id" : { "$oid" : "54a84fa866d8bd8d0faa350e" }, "type" : "Feature", "geometry" : { "type" : "Point", "coordinates" : [ 17.001940, 54.453060 ] }, "properties" : { "name" : "RTV: Slupsk *Komin Sydkraft EC Slupsk KR-1*" } }, { "_id" : { "$oid" : "54a84fa866d8bd8d0faa350d" }, "type" : "Feature", "geometry" : { "type" : "Point", "coordinates" : [ 16.992220, 54.446940 ] }, "properties" : { "name" : "RTV: Slupsk *Kobylnica*" } }, { "_id" : { "$oid" : "54a84fa866d8bd8d0faa350c" }, "type" : "Feature", "geometry" : { "type" : "Point", "coordinates" : [ 16.938890, 54.486110 ] }, "properties" : { "name" : "RTV: Slupsk *Bierkowo*" } }, { "_id" : { "$oid" : "54a84fa866d8bd8d0faa32ef" }, "type" : "Feature", "geometry" : { "type" : "Point", "coordinates" : [ 17.357780, 53.671110 ] }, "properties" : { "name" : "RTV: Czluchow *Szkolna*" } }, { "_id" : { "$oid" : "54a84fa866d8bd8d0faa3452" }, "type" : "Feature", "geometry" : { "type" : "Point", "coordinates" : [ 19.967220, 53.698610 ] }, "properties" : { "name" : "RTV: Ostroda *Wieza Cisnien*" } }, { "_id" : { "$oid" : "54a84fa866d8bd8d0faa3451" }, "type" : "Feature", "geometry" : { "type" : "Point", "coordinates" : [ 19.984170, 53.699440 ] }, "properties" : { "name" : "RTV: Ostroda *Komin MPEC*" } }, { "_id" : { "$oid" : "54a84fa866d8bd8d0faa3406" }, "type" : "Feature", "geometry" : { "type" : "Point", "coordinates" : [ 16.978060, 54.019170 ] }, "properties" : { "name" : "RTV: Miastko *ul. Slupska*" } }, { "_id" : { "$oid" : "54a84fa866d8bd8d0faa3405" }, "type" : "Feature", "geometry" : { "type" : "Point", "coordinates" : [ 16.957780, 53.995280 ] }, "properties" : { "name" : "RTV: Miastko *ul. Kaszubska*" } }, { "_id" : { "$oid" : "54a84fa866d8bd8d0faa3423" }, "type" : "Feature", "geometry" : { "type" : "Point", "coordinates" : [ 19.576940, 53.396390 ] }, "properties" : { "name" : "RTV: Nowe Miasto Lubawskie *Kurzetnik*" } }, { "_id" : { "$oid" : "54a84fa866d8bd8d0faa3450" }, "type" : "Feature", "geometry" : { "type" : "Point", "coordinates" : [ 19.940280, 53.549440 ] }, "properties" : { "name" : "RTV: Ostroda *Dylewska Gora*" } }, { "_id" : { "$oid" : "54a84fa866d8bd8d0faa34c6" }, "type" : "Feature", "geometry" : { "type" : "Point", "coordinates" : [ 17.545280, 53.437780 ] }, "properties" : { "name" : "RTV: Sepolno Krajenskie *Komin MDD*" } }, { "_id" : { "$oid" : "54a84fa866d8bd8d0faa32ca" }, "type" : "Feature", "geometry" : { "type" : "Point", "coordinates" : [ 18.173330, 53.265000 ] }, "properties" : { "name" : "RTV: Bydgoszcz *Trzeciewiec*" } }, { "_id" : { "$oid" : "54a84fa866d8bd8d0faa339e" }, "type" : "Feature", "geometry" : { "type" : "Point", "coordinates" : [ 17.945830, 53.291670 ] }, "properties" : { "name" : "RTV: Koronowo *Okole*" } }, { "_id" : { "$oid" : "54a84fa866d8bd8d0faa33e9" }, "type" : "Feature", "geometry" : { "type" : "Point", "coordinates" : [ 20.564440, 54.138890 ] }, "properties" : { "name" : "RTV: Lidzbark Warminski *Dabrowskiego*" } }, { "_id" : { "$oid" : "54a84fa866d8bd8d0faa33a1" }, "type" : "Feature", "geometry" : { "type" : "Point", "coordinates" : [ 16.740830, 54.004170 ] }, "properties" : { "name" : "RTV: Koszalin *Gologora*" } }, { "_id" : { "$oid" : "54a84fa866d8bd8d0faa32bd" }, "type" : "Feature", "geometry" : { "type" : "Point", "coordinates" : [ 19.378890, 53.267220 ] }, "properties" : { "name" : "RTV: Brodnica *Kruszynki*" } }, { "_id" : { "$oid" : "54a84fa866d8bd8d0faa343c" }, "type" : "Feature", "geometry" : { "type" : "Point", "coordinates" : [ 20.444440, 53.746670 ] }, "properties" : { "name" : "RTV: Olsztyn *Komin MPEC*" } }, { "_id" : { "$oid" : "54a84fa866d8bd8d0faa32bc" }, "type" : "Feature", "geometry" : { "type" : "Point", "coordinates" : [ 19.459440, 53.232500 ] }, "properties" : { "name" : "RTV: Brodnica *Cieleta*" } }, { "_id" : { "$oid" : "54a84fa866d8bd8d0faa343e" }, "type" : "Feature", "geometry" : { "type" : "Point", "coordinates" : [ 20.485280, 53.779720 ] }, "properties" : { "name" : "RTV: Olsztyn *ul. Dabrowszczakow*" } }, { "_id" : { "$oid" : "54a84fa866d8bd8d0faa343b" }, "type" : "Feature", "geometry" : { "type" : "Point", "coordinates" : [ 20.486110, 53.770830 ] }, "properties" : { "name" : "RTV: Olsztyn *Dom Studenta nr 11 Bratniak*" } }, { "_id" : { "$oid" : "54a84fa866d8bd8d0faa32c9" }, "type" : "Feature", "geometry" : { "type" : "Point", "coordinates" : [ 18.082220, 53.169170 ] }, "properties" : { "name" : "RTV: Bydgoszcz *Osielsko*" } }, { "_id" : { "$oid" : "54a84fa866d8bd8d0faa3440" }, "type" : "Feature", "geometry" : { "type" : "Point", "coordinates" : [ 20.295830, 53.584440 ] }, "properties" : { "name" : "RTV: Olsztynek *Elewator PROVIMI*" } }, { "_id" : { "$oid" : "54a84fa866d8bd8d0faa343f" }, "type" : "Feature", "geometry" : { "type" : "Point", "coordinates" : [ 20.295560, 53.583330 ] }, "properties" : { "name" : "RTV: Olsztynek *Budynek PROVIMI*" } }, { "_id" : { "$oid" : "54a84fa866d8bd8d0faa343d" }, "type" : "Feature", "geometry" : { "type" : "Point", "coordinates" : [ 20.520560, 53.753610 ] }, "properties" : { "name" : "RTV: Olsztyn *Pieczewo*" } }, { "_id" : { "$oid" : "54a84fa866d8bd8d0faa3295" }, "type" : "Feature", "geometry" : { "type" : "Point", "coordinates" : [ 20.820560, 54.254440 ] }, "properties" : { "name" : "RTV: Bartoszyce *ul. Kajki*" } }, { "_id" : { "$oid" : "54a84fa866d8bd8d0faa32c6" }, "type" : "Feature", "geometry" : { "type" : "Point", "coordinates" : [ 18.029170, 53.132500 ] }, "properties" : { "name" : "RTV: Bydgoszcz *Chodkiewicza*" } }, { "_id" : { "$oid" : "54a84fa866d8bd8d0faa32c7" }, "type" : "Feature", "geometry" : { "type" : "Point", "coordinates" : [ 17.983610, 53.135830 ] }, "properties" : { "name" : "RTV: Bydgoszcz *Komin EC Bydgoszcz I*" } }, { "_id" : { "$oid" : "54a84fa866d8bd8d0faa32cb" }, "type" : "Feature", "geometry" : { "type" : "Point", "coordinates" : [ 18.033330, 53.116670 ] }, "properties" : { "name" : "RTV: Bydgoszcz [miasto]" } }, { "_id" : { "$oid" : "54a84fa866d8bd8d0faa32c8" }, "type" : "Feature", "geometry" : { "type" : "Point", "coordinates" : [ 18.015560, 53.115000 ] }, "properties" : { "name" : "RTV: Bydgoszcz *Kosciol Sw. Jadwigi Krolowej*" } }, { "_id" : { "$oid" : "54a84fa866d8bd8d0faa32c5" }, "type" : "Feature", "geometry" : { "type" : "Point", "coordinates" : [ 17.982780, 53.117780 ] }, "properties" : { "name" : "RTV: Bydgoszcz *Budynek b. BZF Foton*" } }, { "_id" : { "$oid" : "54a84fa866d8bd8d0faa32c4" }, "type" : "Feature", "geometry" : { "type" : "Point", "coordinates" : [ 17.980560, 53.117780 ] }, "properties" : { "name" : "RTV: Bydgoszcz *Budynek b. BZF Foton - Sklep*" } }, { "_id" : { "$oid" : "54a84fa866d8bd8d0faa34de" }, "type" : "Feature", "geometry" : { "type" : "Point", "coordinates" : [ 18.235000, 53.074720 ] }, "properties" : { "name" : "RTV: Solec Kujawski *Komin KPEC*" } }, { "_id" : { "$oid" : "54a84fa866d8bd8d0faa32f1" }, "type" : "Feature", "geometry" : { "type" : "Point", "coordinates" : [ 16.394720, 54.425560 ] }, "properties" : { "name" : "RTV: Darlowo *ul. Lotnikow Morskich*" } }, { "_id" : { "$oid" : "54a84fa866d8bd8d0faa3500" }, "type" : "Feature", "geometry" : { "type" : "Point", "coordinates" : [ 16.703610, 53.708330 ] }, "properties" : { "name" : "RTV: Szczecinek *Gora Winnicza*" } }, { "_id" : { "$oid" : "54a84fa866d8bd8d0faa3293" }, "type" : "Feature", "geometry" : { "type" : "Point", "coordinates" : [ 20.684170, 53.827500 ] }, "properties" : { "name" : "RTV: Barczewo *Komin MSI*" } }, { "_id" : { "$oid" : "54a84fa866d8bd8d0faa351f" }, "type" : "Feature", "geometry" : { "type" : "Point", "coordinates" : [ 18.693060, 53.047780 ] }, "properties" : { "name" : "RTV: Torun *Komin Cergia*" } }, { "_id" : { "$oid" : "54a84fa866d8bd8d0faa34fe" }, "type" : "Feature", "geometry" : { "type" : "Point", "coordinates" : [ 16.713060, 53.692220 ] }, "properties" : { "name" : "RTV: Szczecinek" } }, { "_id" : { "$oid" : "54a84fa866d8bd8d0faa359c" }, "type" : "Feature", "geometry" : { "type" : "Point", "coordinates" : [ 20.491390, 53.619720 ] }, "properties" : { "name" : "RTV: Lansk *Osrodek URM*" } }, { "_id" : { "$oid" : "54a84fa866d8bd8d0faa3501" }, "type" : "Feature", "geometry" : { "type" : "Point", "coordinates" : [ 16.706940, 53.677780 ] }, "properties" : { "name" : "RTV: Szczecinek *ul. Fabryczna*" } }, { "_id" : { "$oid" : "54a84fa866d8bd8d0faa34ff" }, "type" : "Feature", "geometry" : { "type" : "Point", "coordinates" : [ 16.613330, 53.755280 ] }, "properties" : { "name" : "RTV: Szczecinek *Dalecino*" } }, { "_id" : { "$oid" : "54a84fa866d8bd8d0faa34c7" }, "type" : "Feature", "geometry" : { "type" : "Point", "coordinates" : [ 16.348330, 54.245280 ] }, "properties" : { "name" : "RTV: Sianow *Karnieszewice*" } }, { "_id" : { "$oid" : "54a84fa866d8bd8d0faa3522" }, "type" : "Feature", "geometry" : { "type" : "Point", "coordinates" : [ 18.640830, 53.018330 ] }, "properties" : { "name" : "RTV: Torun *ul. Szosa Lubicka*" } }, { "_id" : { "$oid" : "54a84fa866d8bd8d0faa3521" }, "type" : "Feature", "geometry" : { "type" : "Point", "coordinates" : [ 18.601670, 53.017500 ] }, "properties" : { "name" : "RTV: Torun *ul. Szosa Chelminska*" } }, { "_id" : { "$oid" : "54a84fa866d8bd8d0faa3523" }, "type" : "Feature", "geometry" : { "type" : "Point", "coordinates" : [ 18.616670, 53.016670 ] }, "properties" : { "name" : "RTV: Torun [miasto]" } }, { "_id" : { "$oid" : "54a84fa866d8bd8d0faa3520" }, "type" : "Feature", "geometry" : { "type" : "Point", "coordinates" : [ 18.592780, 53.011110 ] }, "properties" : { "name" : "RTV: Torun *Moniuszki*" } }, { "_id" : { "$oid" : "54a84fa866d8bd8d0faa34dd" }, "type" : "Feature", "geometry" : { "type" : "Point", "coordinates" : [ 18.261110, 53.022780 ] }, "properties" : { "name" : "RTV: Solec Kujawski *Kabat*" } }, { "_id" : { "$oid" : "54a84fa866d8bd8d0faa341b" }, "type" : "Feature", "geometry" : { "type" : "Point", "coordinates" : [ 17.588330, 53.141110 ] }, "properties" : { "name" : "RTV: Naklo *Park Sobieskiego*" } }, { "_id" : { "$oid" : "54a84fa866d8bd8d0faa359a" }, "type" : "Feature", "geometry" : { "type" : "Point", "coordinates" : [ 17.048330, 53.346670 ] }, "properties" : { "name" : "RTV: Zlotow *Komin Sydkraft*" } }, { "_id" : { "$oid" : "54a84fa866d8bd8d0faa33a0" }, "type" : "Feature", "geometry" : { "type" : "Point", "coordinates" : [ 16.228330, 54.204170 ] }, "properties" : { "name" : "RTV: Koszalin *Gora Chelmska*" } }, { "_id" : { "$oid" : "54a84fa866d8bd8d0faa339f" }, "type" : "Feature", "geometry" : { "type" : "Point", "coordinates" : [ 16.225830, 54.207780 ] }, "properties" : { "name" : "RTV: Koszalin *Gora Chelmska - Wieza*" } }, { "_id" : { "$oid" : "54a84fa866d8bd8d0faa33a5" }, "type" : "Feature", "geometry" : { "type" : "Point", "coordinates" : [ 16.216670, 54.200000 ] }, "properties" : { "name" : "RTV: Koszalin [miasto]" } }, { "_id" : { "$oid" : "54a84fa866d8bd8d0faa33a4" }, "type" : "Feature", "geometry" : { "type" : "Point", "coordinates" : [ 16.196940, 54.190830 ] }, "properties" : { "name" : "RTV: Koszalin *ul. Zwyciestwa*" } }, { "_id" : { "$oid" : "54a84fa866d8bd8d0faa33a3" }, "type" : "Feature", "geometry" : { "type" : "Point", "coordinates" : [ 16.174170, 54.175000 ] }, "properties" : { "name" : "RTV: Koszalin *Komin MEC FUB*" } }, { "_id" : { "$oid" : "54a84fa866d8bd8d0faa33a2" }, "type" : "Feature", "geometry" : { "type" : "Point", "coordinates" : [ 16.157220, 54.195830 ] }, "properties" : { "name" : "RTV: Koszalin *Komin MEC DPM*" } }, { "_id" : { "$oid" : "54a84fa866d8bd8d0faa328e" }, "type" : "Feature", "geometry" : { "type" : "Point", "coordinates" : [ 18.689720, 52.882500 ] }, "properties" : { "name" : "RTV: Aleksandrow Kujawski *Komin Budkrusz*" } }, { "_id" : { "$oid" : "54a84fa866d8bd8d0faa35ca" }, "type" : "Feature", "geometry" : { "type" : "Point", "coordinates" : [ 19.906670, 53.066670 ] }, "properties" : { "name" : "RTV: Zuromin [miasto]" } }, { "_id" : { "$oid" : "54a84fa866d8bd8d0faa356f" }, "type" : "Feature", "geometry" : { "type" : "Point", "coordinates" : [ 17.288610, 53.012780 ] }, "properties" : { "name" : "RTV: Wagrowiec *Chojna*" } }, { "_id" : { "$oid" : "54a84fa866d8bd8d0faa3351" }, "type" : "Feature", "geometry" : { "type" : "Point", "coordinates" : [ 18.260000, 52.800280 ] }, "properties" : { "name" : "RTV: Inowroclaw *Kosciol Zwiastowania NMP*" } }, { "_id" : { "$oid" : "54a84fa866d8bd8d0faa3353" }, "type" : "Feature", "geometry" : { "type" : "Point", "coordinates" : [ 18.256940, 52.799170 ] }, "properties" : { "name" : "RTV: Inowroclaw *ul. Laubitza*" } }, { "_id" : { "$oid" : "54a84fa866d8bd8d0faa3352" }, "type" : "Feature", "geometry" : { "type" : "Point", "coordinates" : [ 18.267500, 52.790560 ] }, "properties" : { "name" : "RTV: Inowroclaw *ul. Chrobrego*" } }, { "_id" : { "$oid" : "54a84fa866d8bd8d0faa3492" }, "type" : "Feature", "geometry" : { "type" : "Point", "coordinates" : [ 19.649720, 52.890830 ] }, "properties" : { "name" : "RTV: Plock *Rachocin*" } }, { "_id" : { "$oid" : "54a84fa866d8bd8d0faa341a" }, "type" : "Feature", "geometry" : { "type" : "Point", "coordinates" : [ 20.348890, 53.136390 ] }, "properties" : { "name" : "RTV: Mlawa *ul. Instalatorow*" } }, { "_id" : { "$oid" : "54a84fa866d8bd8d0faa35c8" }, "type" : "Feature", "geometry" : { "type" : "Point", "coordinates" : [ 17.755280, 52.854440 ] }, "properties" : { "name" : "RTV: Znin *Kosciol Sw. Marcina*" } }, { "_id" : { "$oid" : "54a84fa866d8bd8d0faa35c7" }, "type" : "Feature", "geometry" : { "type" : "Point", "coordinates" : [ 17.708060, 52.861940 ] }, "properties" : { "name" : "RTV: Znin *Komin b. ZP Pozmlecz*" } }, { "_id" : { "$oid" : "54a84fa866d8bd8d0faa347f" }, "type" : "Feature", "geometry" : { "type" : "Point", "coordinates" : [ 16.100000, 53.766670 ] }, "properties" : { "name" : "RTV: Polczyn-Zdroj [miasto]" } }, { "_id" : { "$oid" : "54a84fa866d8bd8d0faa3387" }, "type" : "Feature", "geometry" : { "type" : "Point", "coordinates" : [ 21.379170, 54.091390 ] }, "properties" : { "name" : "RTV: Ketrzyn *ul. Lokietka*" } }, { "_id" : { "$oid" : "54a84fa866d8bd8d0faa3570" }, "type" : "Feature", "geometry" : { "type" : "Point", "coordinates" : [ 17.286940, 52.943060 ] }, "properties" : { "name" : "RTV: Wagrowiec *Golancz*" } }, { "_id" : { "$oid" : "54a84fa866d8bd8d0faa3350" }, "type" : "Feature", "geometry" : { "type" : "Point", "coordinates" : [ 18.241110, 52.749440 ] }, "properties" : { "name" : "RTV: Inowroclaw *Komin Soda-Matwy*" } }, { "_id" : { "$oid" : "54a84fa866d8bd8d0faa3414" }, "type" : "Feature", "geometry" : { "type" : "Point", "coordinates" : [ 21.297220, 53.866940 ] }, "properties" : { "name" : "RTV: Mragowo *Spacerowa*" } }, { "_id" : { "$oid" : "54a84fa866d8bd8d0faa359f" }, "type" : "Feature", "geometry" : { "type" : "Point", "coordinates" : [ 16.064440, 53.719440 ] }, "properties" : { "name" : "RTV: Lobez *Toporzyk*" } }, { "_id" : { "$oid" : "54a84fa866d8bd8d0faa3419" }, "type" : "Feature", "geometry" : { "type" : "Point", "coordinates" : [ 20.420280, 53.095280 ] }, "properties" : { "name" : "RTV: Mlawa *Szydlowek*" } }, { "_id" : { "$oid" : "54a84fa866d8bd8d0faa3470" }, "type" : "Feature", "geometry" : { "type" : "Point", "coordinates" : [ 16.738890, 53.150560 ] }, "properties" : { "name" : "RTV: Pila *Hotel Gromada Rodlo*" } }, { "_id" : { "$oid" : "54a84fa866d8bd8d0faa3471" }, "type" : "Feature", "geometry" : { "type" : "Point", "coordinates" : [ 16.713060, 53.150280 ] }, "properties" : { "name" : "RTV: Pila *Kosciol NMP Wspomozenia Wiernych*" } }, { "_id" : { "$oid" : "54a84fa866d8bd8d0faa3472" }, "type" : "Feature", "geometry" : { "type" : "Point", "coordinates" : [ 16.745280, 53.125560 ] }, "properties" : { "name" : "RTV: Pila *Staszyce*" } }, { "_id" : { "$oid" : "54a84fa866d8bd8d0faa32f0" }, "type" : "Feature", "geometry" : { "type" : "Point", "coordinates" : [ 17.487500, 52.836670 ] }, "properties" : { "name" : "RTV: Damaslawek *ul. Lipowa*" } }, { "_id" : { "$oid" : "54a84fa866d8bd8d0faa3547" }, "type" : "Feature", "geometry" : { "type" : "Point", "coordinates" : [ 16.465000, 53.266390 ] }, "properties" : { "name" : "RTV: Walcz *Komin ZEC KR-2*" } }, { "_id" : { "$oid" : "54a84fa866d8bd8d0faa3578" }, "type" : "Feature", "geometry" : { "type" : "Point", "coordinates" : [ 19.098060, 52.683330 ] }, "properties" : { "name" : "RTV: Wloclawek *Szpetal Gorny - Parafia*" } }, { "_id" : { "$oid" : "54a84fa866d8bd8d0faa357a" }, "type" : "Feature", "geometry" : { "type" : "Point", "coordinates" : [ 19.075560, 52.672780 ] }, "properties" : { "name" : "RTV: Wloclawek *Zawisle*" } }, { "_id" : { "$oid" : "54a84fa866d8bd8d0faa3574" }, "type" : "Feature", "geometry" : { "type" : "Point", "coordinates" : [ 19.083060, 52.672780 ] }, "properties" : { "name" : "RTV: Wloclawek *Dom Studenta PWSZ*" } }, { "_id" : { "$oid" : "54a84fa866d8bd8d0faa3579" }, "type" : "Feature", "geometry" : { "type" : "Point", "coordinates" : [ 19.094440, 52.672500 ] }, "properties" : { "name" : "RTV: Wloclawek *Szpetal Gorny*" } }, { "_id" : { "$oid" : "54a84fa866d8bd8d0faa357b" }, "type" : "Feature", "geometry" : { "type" : "Point", "coordinates" : [ 19.071110, 52.664440 ] }, "properties" : { "name" : "RTV: Wloclawek [miasto]" } }, { "_id" : { "$oid" : "54a84fa866d8bd8d0faa32d5" }, "type" : "Feature", "geometry" : { "type" : "Point", "coordinates" : [ 16.907780, 52.983330 ] }, "properties" : { "name" : "RTV: Chodziez *ul. Strzelecka*" } }, { "_id" : { "$oid" : "54a84fa866d8bd8d0faa3575" }, "type" : "Feature", "geometry" : { "type" : "Point", "coordinates" : [ 19.048890, 52.660560 ] }, "properties" : { "name" : "RTV: Wloclawek *Komin C Zazamcze*" } }, { "_id" : { "$oid" : "54a84fa866d8bd8d0faa3577" }, "type" : "Feature", "geometry" : { "type" : "Point", "coordinates" : [ 19.065560, 52.655000 ] }, "properties" : { "name" : "RTV: Wloclawek *pl. Wolnosci*" } }, { "_id" : { "$oid" : "54a84fa866d8bd8d0faa3576" }, "type" : "Feature", "geometry" : { "type" : "Point", "coordinates" : [ 19.098890, 52.651940 ] }, "properties" : { "name" : "RTV: Wloclawek *Komin MPEC*" } }, { "_id" : { "$oid" : "54a84fa866d8bd8d0faa335a" }, "type" : "Feature", "geometry" : { "type" : "Point", "coordinates" : [ 17.486390, 52.757500 ] }, "properties" : { "name" : "RTV: Janowiec Wielkopolski [miasto]" } }, { "_id" : { "$oid" : "54a84fa866d8bd8d0faa3599" }, "type" : "Feature", "geometry" : { "type" : "Point", "coordinates" : [ 16.010000, 53.545560 ] }, "properties" : { "name" : "RTV: Zlocieniec *Kosciol Sw. Jadwigi Krolowej*" } }, { "_id" : { "$oid" : "54a84fa866d8bd8d0faa3411" }, "type" : "Feature", "geometry" : { "type" : "Point", "coordinates" : [ 17.947500, 52.660560 ] }, "properties" : { "name" : "RTV: Mogilno [miasto]" } }, { "_id" : { "$oid" : "54a84fa866d8bd8d0faa3571" }, "type" : "Feature", "geometry" : { "type" : "Point", "coordinates" : [ 17.204720, 52.815280 ] }, "properties" : { "name" : "RTV: Wagrowiec *ul. Mickiewicza*" } }, { "_id" : { "$oid" : "54a84fa866d8bd8d0faa33ac" }, "type" : "Feature", "geometry" : { "type" : "Point", "coordinates" : [ 15.637220, 54.149170 ] }, "properties" : { "name" : "RTV: Kolobrzeg *Stramnica*" } }, { "_id" : { "$oid" : "54a84fa866d8bd8d0faa3572" }, "type" : "Feature", "geometry" : { "type" : "Point", "coordinates" : [ 17.199720, 52.808890 ] }, "properties" : { "name" : "RTV: Wagrowiec [miasto]" } }, { "_id" : { "$oid" : "54a84fa866d8bd8d0faa33ab" }, "type" : "Feature", "geometry" : { "type" : "Point", "coordinates" : [ 15.586940, 54.181670 ] }, "properties" : { "name" : "RTV: Kolobrzeg *Komin MEC*" } }, { "_id" : { "$oid" : "54a84fa866d8bd8d0faa329c" }, "type" : "Feature", "geometry" : { "type" : "Point", "coordinates" : [ 15.686110, 53.886110 ] }, "properties" : { "name" : "RTV: Bialogard *Slawoborze*" } }, { "_id" : { "$oid" : "54a84fa866d8bd8d0faa33a9" }, "type" : "Feature", "geometry" : { "type" : "Point", "coordinates" : [ 15.574170, 54.176110 ] }, "properties" : { "name" : "RTV: Kolobrzeg *Bazylika Konkatedralna*" } }, { "_id" : { "$oid" : "54a84fa866d8bd8d0faa33aa" }, "type" : "Feature", "geometry" : { "type" : "Point", "coordinates" : [ 15.554720, 54.174440 ] }, "properties" : { "name" : "RTV: Kolobrzeg *Jednosci Narodowej*" } }, { "_id" : { "$oid" : "54a84fa866d8bd8d0faa3548" }, "type" : "Feature", "geometry" : { "type" : "Point", "coordinates" : [ 16.263610, 53.170830 ] }, "properties" : { "name" : "RTV: Walcz *Rusinowo*" } }, { "_id" : { "$oid" : "54a84fa866d8bd8d0faa331e" }, "type" : "Feature", "geometry" : { "type" : "Point", "coordinates" : [ 21.767780, 54.037500 ] }, "properties" : { "name" : "RTV: Gizycko *Hotel Wodnik*" } }, { "_id" : { "$oid" : "54a84fa866d8bd8d0faa3320" }, "type" : "Feature", "geometry" : { "type" : "Point", "coordinates" : [ 21.766670, 54.033330 ] }, "properties" : { "name" : "RTV: Gizycko [miasto]" } }, { "_id" : { "$oid" : "54a84fa866d8bd8d0faa331c" }, "type" : "Feature", "geometry" : { "type" : "Point", "coordinates" : [ 21.773890, 54.043060 ] }, "properties" : { "name" : "RTV: Gizycko *1 Maja*" } }, { "_id" : { "$oid" : "54a84fa866d8bd8d0faa331d" }, "type" : "Feature", "geometry" : { "type" : "Point", "coordinates" : [ 21.783890, 54.052780 ] }, "properties" : { "name" : "RTV: Gizycko *Gajewo*" } }, { "_id" : { "$oid" : "54a84fa866d8bd8d0faa32db" }, "type" : "Feature", "geometry" : { "type" : "Point", "coordinates" : [ 20.580000, 52.871940 ] }, "properties" : { "name" : "RTV: Ciechanow *Monte Cassino*" } }, { "_id" : { "$oid" : "54a84fa866d8bd8d0faa3491" }, "type" : "Feature", "geometry" : { "type" : "Point", "coordinates" : [ 19.688330, 52.583610 ] }, "properties" : { "name" : "RTV: Plock *Komin Orlen*" } }, { "_id" : { "$oid" : "54a84fa866d8bd8d0faa3483" }, "type" : "Feature", "geometry" : { "type" : "Point", "coordinates" : [ 20.863890, 53.006670 ] }, "properties" : { "name" : "RTV: Przasnysz *Szosa Ciechanowska*" } }, { "_id" : { "$oid" : "54a84fa866d8bd8d0faa32da" }, "type" : "Feature", "geometry" : { "type" : "Point", "coordinates" : [ 20.603890, 52.856390 ] }, "properties" : { "name" : "RTV: Ciechanow *Komin PEC*" } }, { "_id" : { "$oid" : "54a84fa866d8bd8d0faa348f" }, "type" : "Feature", "geometry" : { "type" : "Point", "coordinates" : [ 19.672780, 52.551670 ] }, "properties" : { "name" : "RTV: Plock *Dom Studencki Wczesniak*" } }, { "_id" : { "$oid" : "54a84fa866d8bd8d0faa35a0" }, "type" : "Feature", "geometry" : { "type" : "Point", "coordinates" : [ 15.629720, 53.631390 ] }, "properties" : { "name" : "RTV: Lobez *ul. Podgorna*" } }, { "_id" : { "$oid" : "54a84fa866d8bd8d0faa3494" }, "type" : "Feature", "geometry" : { "type" : "Point", "coordinates" : [ 19.700000, 52.550000 ] }, "properties" : { "name" : "RTV: Plock [miasto]" } }, { "_id" : { "$oid" : "54a84fa866d8bd8d0faa3493" }, "type" : "Feature", "geometry" : { "type" : "Point", "coordinates" : [ 19.696940, 52.549170 ] }, "properties" : { "name" : "RTV: Plock *ul. Kochanowskiego*" } }, { "_id" : { "$oid" : "54a84fa866d8bd8d0faa331f" }, "type" : "Feature", "geometry" : { "type" : "Point", "coordinates" : [ 21.848060, 53.938330 ] }, "properties" : { "name" : "RTV: Gizycko *Milki*" } }, { "_id" : { "$oid" : "54a84fa866d8bd8d0faa3322" }, "type" : "Feature", "geometry" : { "type" : "Point", "coordinates" : [ 17.605280, 52.534440 ] }, "properties" : { "name" : "RTV: Gniezno *Budynek ZSP nr 1*" } }, { "_id" : { "$oid" : "54a84fa866d8bd8d0faa3323" }, "type" : "Feature", "geometry" : { "type" : "Point", "coordinates" : [ 17.605560, 52.534170 ] }, "properties" : { "name" : "RTV: Gniezno *Komin PEC*" } }, { "_id" : { "$oid" : "54a84fa866d8bd8d0faa3324" }, "type" : "Feature", "geometry" : { "type" : "Point", "coordinates" : [ 17.604170, 52.533060 ] }, "properties" : { "name" : "RTV: Gniezno *ul. Sobieskiego*" } }, { "_id" : { "$oid" : "54a84fa866d8bd8d0faa3325" }, "type" : "Feature", "geometry" : { "type" : "Point", "coordinates" : [ 17.600000, 52.533330 ] }, "properties" : { "name" : "RTV: Gniezno [miasto]" } }, { "_id" : { "$oid" : "54a84fa866d8bd8d0faa3490" }, "type" : "Feature", "geometry" : { "type" : "Point", "coordinates" : [ 19.659170, 52.527780 ] }, "properties" : { "name" : "RTV: Plock *Komin b. mleczarni Mitex*" } }, { "_id" : { "$oid" : "54a84fa866d8bd8d0faa3399" }, "type" : "Feature", "geometry" : { "type" : "Point", "coordinates" : [ 18.329720, 52.398890 ] }, "properties" : { "name" : "RTV: Konin *Zolwieniec*" } }, { "_id" : { "$oid" : "54a84fa866d8bd8d0faa3526" }, "type" : "Feature", "geometry" : { "type" : "Point", "coordinates" : [ 15.268060, 54.061940 ] }, "properties" : { "name" : "RTV: Trzebiatow *ul. Wodna*" } }, { "_id" : { "$oid" : "54a84fa866d8bd8d0faa3495" }, "type" : "Feature", "geometry" : { "type" : "Point", "coordinates" : [ 20.374170, 52.628330 ] }, "properties" : { "name" : "RTV: Plonsk *Grunwaldzka*" } }, { "_id" : { "$oid" : "54a84fa866d8bd8d0faa3496" }, "type" : "Feature", "geometry" : { "type" : "Point", "coordinates" : [ 20.361110, 52.615830 ] }, "properties" : { "name" : "RTV: Plonsk *Komin PEC*" } }, { "_id" : { "$oid" : "54a84fa866d8bd8d0faa354f" }, "type" : "Feature", "geometry" : { "type" : "Point", "coordinates" : [ 16.327780, 52.863060 ] }, "properties" : { "name" : "RTV: Wielen *Rosko*" } }, { "_id" : { "$oid" : "54a84fa866d8bd8d0faa359b" }, "type" : "Feature", "geometry" : { "type" : "Point", "coordinates" : [ 19.256940, 52.356940 ] }, "properties" : { "name" : "RTV: Lanieta *Witoldow*" } }, { "_id" : { "$oid" : "54a84fa866d8bd8d0faa3341" }, "type" : "Feature", "geometry" : { "type" : "Point", "coordinates" : [ 15.209720, 53.929440 ] }, "properties" : { "name" : "RTV: Gryfice *ul. Pilsudskiego*" } }, { "_id" : { "$oid" : "54a84fa866d8bd8d0faa333f" }, "type" : "Feature", "geometry" : { "type" : "Point", "coordinates" : [ 15.197780, 53.913610 ] }, "properties" : { "name" : "RTV: Gryfice *Kosciol Wniebowziecia NMP*" } }, { "_id" : { "$oid" : "54a84fa866d8bd8d0faa3340" }, "type" : "Feature", "geometry" : { "type" : "Point", "coordinates" : [ 15.193060, 53.906110 ] }, "properties" : { "name" : "RTV: Gryfice *Trzyglowska*" } }, { "_id" : { "$oid" : "54a84fa866d8bd8d0faa3529" }, "type" : "Feature", "geometry" : { "type" : "Point", "coordinates" : [ 21.743610, 53.377500 ] }, "properties" : { "name" : "RTV: Turosl *ul. Jana Pawla II*" } }, { "_id" : { "$oid" : "54a84fa866d8bd8d0faa346e" }, "type" : "Feature", "geometry" : { "type" : "Point", "coordinates" : [ 21.927500, 53.569720 ] }, "properties" : { "name" : "RTV: Pisz *Liski*" } }, { "_id" : { "$oid" : "54a84fa866d8bd8d0faa34af" }, "type" : "Feature", "geometry" : { "type" : "Point", "coordinates" : [ 15.090000, 54.066940 ] }, "properties" : { "name" : "RTV: Rewal *Ledzin*" } }, { "_id" : { "$oid" : "54a84fa866d8bd8d0faa3509" }, "type" : "Feature", "geometry" : { "type" : "Point", "coordinates" : [ 17.853330, 52.289440 ] }, "properties" : { "name" : "RTV: Slupca *Mlyn Gorczycy*" } }, { "_id" : { "$oid" : "54a84fa866d8bd8d0faa356d" }, "type" : "Feature", "geometry" : { "type" : "Point", "coordinates" : [ 17.559440, 52.335280 ] }, "properties" : { "name" : "RTV: Wrzesnia *ul. Czerniejewska*" } }, { "_id" : { "$oid" : "54a84fa866d8bd8d0faa3333" }, "type" : "Feature", "geometry" : { "type" : "Point", "coordinates" : [ 22.293610, 54.281670 ] }, "properties" : { "name" : "RTV: Goldap *Piekna Gora'*" } }, { "_id" : { "$oid" : "54a84fa866d8bd8d0faa3334" }, "type" : "Feature", "geometry" : { "type" : "Point", "coordinates" : [ 22.295830, 54.281670 ] }, "properties" : { "name" : "RTV: Goldap *Piekna Gora*" } }, { "_id" : { "$oid" : "54a84fa866d8bd8d0faa34b0" }, "type" : "Feature", "geometry" : { "type" : "Point", "coordinates" : [ 15.014440, 54.080000 ] }, "properties" : { "name" : "RTV: Rewal *ul. Dworcowa*" } }, { "_id" : { "$oid" : "54a84fa866d8bd8d0faa3397" }, "type" : "Feature", "geometry" : { "type" : "Point", "coordinates" : [ 18.260830, 52.234440 ] }, "properties" : { "name" : "RTV: Konin *Budynek Sonata*" } }, { "_id" : { "$oid" : "54a84fa866d8bd8d0faa34ae" }, "type" : "Feature", "geometry" : { "type" : "Point", "coordinates" : [ 15.013330, 54.082220 ] }, "properties" : { "name" : "RTV: Rewal *DW Radosc*" } }, { "_id" : { "$oid" : "54a84fa866d8bd8d0faa3398" }, "type" : "Feature", "geometry" : { "type" : "Point", "coordinates" : [ 18.244440, 52.234440 ] }, "properties" : { "name" : "RTV: Konin *Elewator*" } }, { "_id" : { "$oid" : "54a84fa866d8bd8d0faa345a" }, "type" : "Feature", "geometry" : { "type" : "Point", "coordinates" : [ 21.531670, 53.074720 ] }, "properties" : { "name" : "RTV: Ostroleka *Grabowo*" } }, { "_id" : { "$oid" : "54a84fa866d8bd8d0faa3396" }, "type" : "Feature", "geometry" : { "type" : "Point", "coordinates" : [ 18.273060, 52.230830 ] }, "properties" : { "name" : "RTV: Konin *11 Listopada*" } }, { "_id" : { "$oid" : "54a84fa866d8bd8d0faa345b" }, "type" : "Feature", "geometry" : { "type" : "Point", "coordinates" : [ 21.572220, 53.081390 ] }, "properties" : { "name" : "RTV: Ostroleka *Kopernika*" } }, { "_id" : { "$oid" : "54a84fa866d8bd8d0faa3479" }, "type" : "Feature", "geometry" : { "type" : "Point", "coordinates" : [ 16.988610, 52.436390 ] }, "properties" : { "name" : "RTV: Poznan *Komin EC Karolin*" } }, { "_id" : { "$oid" : "54a84fa866d8bd8d0faa345c" }, "type" : "Feature", "geometry" : { "type" : "Point", "coordinates" : [ 21.577500, 53.073330 ] }, "properties" : { "name" : "RTV: Ostroleka *Kosciol Zbawiciela Swiata*" } }, { "_id" : { "$oid" : "54a84fa866d8bd8d0faa33ce" }, "type" : "Feature", "geometry" : { "type" : "Point", "coordinates" : [ 19.360280, 52.240280 ] }, "properties" : { "name" : "RTV: Kutno *Kosciol Sw. Jana Chrzciciela*" } }, { "_id" : { "$oid" : "54a84fa866d8bd8d0faa347b" }, "type" : "Feature", "geometry" : { "type" : "Point", "coordinates" : [ 16.904720, 52.459170 ] }, "properties" : { "name" : "RTV: Poznan *Piatkowo*" } }, { "_id" : { "$oid" : "54a84fa866d8bd8d0faa33cf" }, "type" : "Feature", "geometry" : { "type" : "Point", "coordinates" : [ 19.354170, 52.233330 ] }, "properties" : { "name" : "RTV: Kutno [miasto]" } }, { "_id" : { "$oid" : "54a84fa866d8bd8d0faa345e" }, "type" : "Feature", "geometry" : { "type" : "Point", "coordinates" : [ 21.628330, 53.078330 ] }, "properties" : { "name" : "RTV: Ostroleka *Lawy*" } }, { "_id" : { "$oid" : "54a84fa866d8bd8d0faa33cd" }, "type" : "Feature", "geometry" : { "type" : "Point", "coordinates" : [ 19.407220, 52.223890 ] }, "properties" : { "name" : "RTV: Kutno *Komin Odlewni Zeliwa*" } }, { "_id" : { "$oid" : "54a84fa866d8bd8d0faa33cc" }, "type" : "Feature", "geometry" : { "type" : "Point", "coordinates" : [ 19.404440, 52.209440 ] }, "properties" : { "name" : "RTV: Kutno *Komin ECO*" } }, { "_id" : { "$oid" : "54a84fa866d8bd8d0faa345d" }, "type" : "Feature", "geometry" : { "type" : "Point", "coordinates" : [ 21.402220, 52.884170 ] }, "properties" : { "name" : "RTV: Ostroleka *Rozan*" } }, { "_id" : { "$oid" : "54a84fa866d8bd8d0faa3478" }, "type" : "Feature", "geometry" : { "type" : "Point", "coordinates" : [ 16.948610, 52.398610 ] }, "properties" : { "name" : "RTV: Poznan *Dom Studencki nr 5*" } }, { "_id" : { "$oid" : "54a84fa866d8bd8d0faa347c" }, "type" : "Feature", "geometry" : { "type" : "Point", "coordinates" : [ 16.921390, 52.404440 ] }, "properties" : { "name" : "RTV: Poznan *Uniwersytet Ekonomiczny*" } }, { "_id" : { "$oid" : "54a84fa866d8bd8d0faa32f3" }, "type" : "Feature", "geometry" : { "type" : "Point", "coordinates" : [ 15.741110, 52.967220 ] }, "properties" : { "name" : "RTV: Dobiegniew *ul. Lesna*" } }, { "_id" : { "$oid" : "54a84fa866d8bd8d0faa347e" }, "type" : "Feature", "geometry" : { "type" : "Point", "coordinates" : [ 16.916670, 52.400000 ] }, "properties" : { "name" : "RTV: Poznan [miasto]" } }, { "_id" : { "$oid" : "54a84fa866d8bd8d0faa330b" }, "type" : "Feature", "geometry" : { "type" : "Point", "coordinates" : [ 22.328330, 53.876110 ] }, "properties" : { "name" : "RTV: Elk *Oracze*" } }, { "_id" : { "$oid" : "54a84fa866d8bd8d0faa32f6" }, "type" : "Feature", "geometry" : { "type" : "Point", "coordinates" : [ 15.832500, 52.861110 ] }, "properties" : { "name" : "RTV: Drezdenko *Radowo*" } }, { "_id" : { "$oid" : "54a84fa866d8bd8d0faa330a" }, "type" : "Feature", "geometry" : { "type" : "Point", "coordinates" : [ 22.374720, 53.816670 ] }, "properties" : { "name" : "RTV: Elk *Komin PEC*" } }, { "_id" : { "$oid" : "54a84fa866d8bd8d0faa3434" }, "type" : "Feature", "geometry" : { "type" : "Point", "coordinates" : [ 22.500000, 54.035560 ] }, "properties" : { "name" : "RTV: Olecko *Wieza Cisnien*" } }, { "_id" : { "$oid" : "54a84fa866d8bd8d0faa34da" }, "type" : "Feature", "geometry" : { "type" : "Point", "coordinates" : [ 20.274720, 52.257500 ] }, "properties" : { "name" : "RTV: Sochaczew *Komin d. ZWCh Chemitex*" } }, { "_id" : { "$oid" : "54a84fa866d8bd8d0faa35af" }, "type" : "Feature", "geometry" : { "type" : "Point", "coordinates" : [ 22.034170, 53.170830 ] }, "properties" : { "name" : "RTV: Lomza *Komin CM*" } }, { "_id" : { "$oid" : "54a84fa866d8bd8d0faa3473" }, "type" : "Feature", "geometry" : { "type" : "Point", "coordinates" : [ 16.256390, 52.508890 ] }, "properties" : { "name" : "RTV: Pniewy [miasto]" } }, { "_id" : { "$oid" : "54a84fa866d8bd8d0faa3335" }, "type" : "Feature", "geometry" : { "type" : "Point", "coordinates" : [ 22.454720, 53.646940 ] }, "properties" : { "name" : "RTV: Grajewo [miasto]" } }, { "_id" : { "$oid" : "54a84fa866d8bd8d0faa34e8" }, "type" : "Feature", "geometry" : { "type" : "Point", "coordinates" : [ 15.038060, 53.340830 ] }, "properties" : { "name" : "RTV: Stargard Szczecinski *ul. Struga*" } }, { "_id" : { "$oid" : "54a84fa866d8bd8d0faa35b1" }, "type" : "Feature", "geometry" : { "type" : "Point", "coordinates" : [ 22.083330, 53.170830 ] }, "properties" : { "name" : "RTV: Lomza *Wieza Cisnien*" } }, { "_id" : { "$oid" : "54a84fa866d8bd8d0faa35ae" }, "type" : "Feature", "geometry" : { "type" : "Point", "coordinates" : [ 22.088060, 53.161940 ] }, "properties" : { "name" : "RTV: Lomza *Hotel Pielegniarek*" } }, { "_id" : { "$oid" : "54a84fa866d8bd8d0faa3326" }, "type" : "Feature", "geometry" : { "type" : "Point", "coordinates" : [ 14.852220, 53.560280 ] }, "properties" : { "name" : "RTV: Goleniow *Komin PEC*" } }, { "_id" : { "$oid" : "54a84fa866d8bd8d0faa35b0" }, "type" : "Feature", "geometry" : { "type" : "Point", "coordinates" : [ 22.095830, 53.162780 ] }, "properties" : { "name" : "RTV: Lomza *Szosa Zambrowska*" } }, { "_id" : { "$oid" : "54a84fa866d8bd8d0faa34e7" }, "type" : "Feature", "geometry" : { "type" : "Point", "coordinates" : [ 15.005000, 53.350280 ] }, "properties" : { "name" : "RTV: Stargard Szczecinski *Komin PEC*" } }, { "_id" : { "$oid" : "54a84fa866d8bd8d0faa3467" }, "type" : "Feature", "geometry" : { "type" : "Point", "coordinates" : [ 15.314170, 53.035560 ] }, "properties" : { "name" : "RTV: Pelczyce *ul.Pelczyk*" } }, { "_id" : { "$oid" : "54a84fa866d8bd8d0faa347a" }, "type" : "Feature", "geometry" : { "type" : "Point", "coordinates" : [ 16.852500, 52.239440 ] }, "properties" : { "name" : "RTV: Poznan *Mosina*" } }, { "_id" : { "$oid" : "54a84fa866d8bd8d0faa33da" }, "type" : "Feature", "geometry" : { "type" : "Point", "coordinates" : [ 20.935830, 52.419720 ] }, "properties" : { "name" : "RTV: Legionowo *Komin PEC*" } }, { "_id" : { "$oid" : "54a84fa866d8bd8d0faa35b2" }, "type" : "Feature", "geometry" : { "type" : "Point", "coordinates" : [ 19.943330, 52.116390 ] }, "properties" : { "name" : "RTV: Lowicz *ul. Seminaryjna*" } }, { "_id" : { "$oid" : "54a84fa866d8bd8d0faa356e" }, "type" : "Feature", "geometry" : { "type" : "Point", "coordinates" : [ 21.443060, 52.609170 ] }, "properties" : { "name" : "RTV: Wyszkow *Komin PEC*" } }, { "_id" : { "$oid" : "54a84fa866d8bd8d0faa358d" }, "type" : "Feature", "geometry" : { "type" : "Point", "coordinates" : [ 19.315560, 51.958890 ] }, "properties" : { "name" : "RTV: Zgierz *Ozorkow*" } }, { "_id" : { "$oid" : "54a84fa866d8bd8d0faa347d" }, "type" : "Feature", "geometry" : { "type" : "Point", "coordinates" : [ 16.986670, 52.117780 ] }, "properties" : { "name" : "RTV: Poznan *Srem*" } }, { "_id" : { "$oid" : "54a84fa866d8bd8d0faa3408" }, "type" : "Feature", "geometry" : { "type" : "Point", "coordinates" : [ 14.500830, 53.952220 ] }, "properties" : { "name" : "RTV: Miedzyzdroje *Gora Grzywacz*" } }, { "_id" : { "$oid" : "54a84fa866d8bd8d0faa342a" }, "type" : "Feature", "geometry" : { "type" : "Point", "coordinates" : [ 16.142220, 52.400000 ] }, "properties" : { "name" : "RTV: Nowy Tomysl *Bolewice*" } }, { "_id" : { "$oid" : "54a84fa866d8bd8d0faa3453" }, "type" : "Feature", "geometry" : { "type" : "Point", "coordinates" : [ 21.878060, 52.818060 ] }, "properties" : { "name" : "RTV: Ostrow Mazowiecka *Komin Forte*" } }, { "_id" : { "$oid" : "54a84fa866d8bd8d0faa34f3" }, "type" : "Feature", "geometry" : { "type" : "Point", "coordinates" : [ 22.875000, 54.195830 ] }, "properties" : { "name" : "RTV: Suwalki *Gora Krzemianucha*" } }, { "_id" : { "$oid" : "54a84fa866d8bd8d0faa3454" }, "type" : "Feature", "geometry" : { "type" : "Point", "coordinates" : [ 21.928610, 52.824440 ] }, "properties" : { "name" : "RTV: Ostrow Mazowiecka *Podborze*" } }, { "_id" : { "$oid" : "54a84fa866d8bd8d0faa353b" }, "type" : "Feature", "geometry" : { "type" : "Point", "coordinates" : [ 20.993330, 52.294720 ] }, "properties" : { "name" : "RTV: Warszawa *Komin EC Zeran*" } }, { "_id" : { "$oid" : "54a84fa866d8bd8d0faa335b" }, "type" : "Feature", "geometry" : { "type" : "Point", "coordinates" : [ 17.487220, 51.950000 ] }, "properties" : { "name" : "RTV: Jarocin *Komin Dalkia Jarocin*" } }, { "_id" : { "$oid" : "54a84fa866d8bd8d0faa3409" }, "type" : "Feature", "geometry" : { "type" : "Point", "coordinates" : [ 14.432500, 53.866110 ] }, "properties" : { "name" : "RTV: Miedzyzdroje *Lubin*" } }, { "_id" : { "$oid" : "54a84fa866d8bd8d0faa3482" }, "type" : "Feature", "geometry" : { "type" : "Point", "coordinates" : [ 20.743060, 52.175280 ] }, "properties" : { "name" : "RTV: Pruszkow *Komin b. EC Pruszkow II*" } }, { "_id" : { "$oid" : "54a84fa866d8bd8d0faa34f5" }, "type" : "Feature", "geometry" : { "type" : "Point", "coordinates" : [ 22.935830, 54.117220 ] }, "properties" : { "name" : "RTV: Suwalki *Pulaskiego*" } }, { "_id" : { "$oid" : "54a84fa866d8bd8d0faa34d6" }, "type" : "Feature", "geometry" : { "type" : "Point", "coordinates" : [ 20.233330, 52.015560 ] }, "properties" : { "name" : "RTV: Skierniewice *Bartniki*" } }, { "_id" : { "$oid" : "54a84fa866d8bd8d0faa35cb" }, "type" : "Feature", "geometry" : { "type" : "Point", "coordinates" : [ 20.448330, 52.070280 ] }, "properties" : { "name" : "RTV: Zyrardow *Komin PEC Zyrardow*" } }, { "_id" : { "$oid" : "54a84fa866d8bd8d0faa3475" }, "type" : "Feature", "geometry" : { "type" : "Point", "coordinates" : [ 14.532780, 53.575000 ] }, "properties" : { "name" : "RTV: Police *Komin Zakl. Chemicznych Police*" } }, { "_id" : { "$oid" : "54a84fa866d8bd8d0faa3336" }, "type" : "Feature", "geometry" : { "type" : "Point", "coordinates" : [ 20.614170, 52.110560 ] }, "properties" : { "name" : "RTV: Grodzisk Maz. *Komin Gedeon Richter*" } }, { "_id" : { "$oid" : "54a84fa866d8bd8d0faa34f4" }, "type" : "Feature", "geometry" : { "type" : "Point", "coordinates" : [ 22.967220, 54.104440 ] }, "properties" : { "name" : "RTV: Suwalki *Komin PEC*" } }, { "_id" : { "$oid" : "54a84fa866d8bd8d0faa3560" }, "type" : "Feature", "geometry" : { "type" : "Point", "coordinates" : [ 21.265560, 52.357220 ] }, "properties" : { "name" : "RTV: Wolomin *Komin ZEC*" } }, { "_id" : { "$oid" : "54a84fa866d8bd8d0faa3537" }, "type" : "Feature", "geometry" : { "type" : "Point", "coordinates" : [ 21.002220, 52.244170 ] }, "properties" : { "name" : "RTV: Warszawa *Blekitny Wiezowiec*" } }, { "_id" : { "$oid" : "54a84fa866d8bd8d0faa353c" }, "type" : "Feature", "geometry" : { "type" : "Point", "coordinates" : [ 21.013890, 52.246390 ] }, "properties" : { "name" : "RTV: Warszawa *Kosciol Sw. Anny*" } }, { "_id" : { "$oid" : "54a84fa866d8bd8d0faa34d8" }, "type" : "Feature", "geometry" : { "type" : "Point", "coordinates" : [ 20.143330, 51.973330 ] }, "properties" : { "name" : "RTV: Skierniewice *Kosciol Najsw. Serca Pana Jezusa*" } }, { "_id" : { "$oid" : "54a84fa866d8bd8d0faa358e" }, "type" : "Feature", "geometry" : { "type" : "Point", "coordinates" : [ 19.398330, 51.849170 ] }, "properties" : { "name" : "RTV: Zgierz *ul. Struga*" } }, { "_id" : { "$oid" : "54a84fa866d8bd8d0faa34fc" }, "type" : "Feature", "geometry" : { "type" : "Point", "coordinates" : [ 14.676940, 53.334170 ] }, "properties" : { "name" : "RTV: Szczecin *Kolowo*" } }, { "_id" : { "$oid" : "54a84fa866d8bd8d0faa3536" }, "type" : "Feature", "geometry" : { "type" : "Point", "coordinates" : [ 20.999720, 52.232780 ] }, "properties" : { "name" : "RTV: Warszawa *Budynek Rondo 1*" } }, { "_id" : { "$oid" : "54a84fa866d8bd8d0faa3538" }, "type" : "Feature", "geometry" : { "type" : "Point", "coordinates" : [ 20.963610, 52.218610 ] }, "properties" : { "name" : "RTV: Warszawa *Dworzec Zachodni*" } }, { "_id" : { "$oid" : "54a84fa866d8bd8d0faa353e" }, "type" : "Feature", "geometry" : { "type" : "Point", "coordinates" : [ 21.006110, 52.231670 ] }, "properties" : { "name" : "RTV: Warszawa *Palac Kultury i Nauki*" } }, { "_id" : { "$oid" : "54a84fa866d8bd8d0faa3539" }, "type" : "Feature", "geometry" : { "type" : "Point", "coordinates" : [ 21.004720, 52.227780 ] }, "properties" : { "name" : "RTV: Warszawa *Hotel Marriott*" } }, { "_id" : { "$oid" : "54a84fa866d8bd8d0faa34d7" }, "type" : "Feature", "geometry" : { "type" : "Point", "coordinates" : [ 20.169720, 51.971670 ] }, "properties" : { "name" : "RTV: Skierniewice *Komin OSM*" } }, { "_id" : { "$oid" : "54a84fa866d8bd8d0faa33ad" }, "type" : "Feature", "geometry" : { "type" : "Point", "coordinates" : [ 16.663330, 52.090560 ] }, "properties" : { "name" : "RTV: Koscian *Komin nieczynnej CM*" } }, { "_id" : { "$oid" : "54a84fa866d8bd8d0faa33ee" }, "type" : "Feature", "geometry" : { "type" : "Point", "coordinates" : [ 14.968610, 53.002500 ] }, "properties" : { "name" : "RTV: Lipiany *Kosciol Wniebowziecia NMP*" } }, { "_id" : { "$oid" : "54a84fa866d8bd8d0faa353a" }, "type" : "Feature", "geometry" : { "type" : "Point", "coordinates" : [ 21.128890, 52.268060 ] }, "properties" : { "name" : "RTV: Warszawa *Komin C Kaweczyn*" } }, { "_id" : { "$oid" : "54a84fa866d8bd8d0faa34fd" }, "type" : "Feature", "geometry" : { "type" : "Point", "coordinates" : [ 14.543890, 53.475280 ] }, "properties" : { "name" : "RTV: Szczecin *Warszewo*" } }, { "_id" : { "$oid" : "54a84fa866d8bd8d0faa33ed" }, "type" : "Feature", "geometry" : { "type" : "Point", "coordinates" : [ 14.938890, 53.013610 ] }, "properties" : { "name" : "RTV: Lipiany *Komin Lipkon*" } }, { "_id" : { "$oid" : "54a84fa866d8bd8d0faa33ec" }, "type" : "Feature", "geometry" : { "type" : "Point", "coordinates" : [ 14.932220, 53.019440 ] }, "properties" : { "name" : "RTV: Lipiany *Debiec*" } }, { "_id" : { "$oid" : "54a84fa866d8bd8d0faa34fa" }, "type" : "Feature", "geometry" : { "type" : "Point", "coordinates" : [ 14.555280, 53.432780 ] }, "properties" : { "name" : "RTV: Szczecin *Budynek Pazim Center*" } }, { "_id" : { "$oid" : "54a84fa866d8bd8d0faa332a" }, "type" : "Feature", "geometry" : { "type" : "Point", "coordinates" : [ 15.260000, 52.738330 ] }, "properties" : { "name" : "RTV: Gorzow Wielkopolski *Budynek LCHU Spolem*" } }, { "_id" : { "$oid" : "54a84fa866d8bd8d0faa332f" }, "type" : "Feature", "geometry" : { "type" : "Point", "coordinates" : [ 15.259170, 52.738060 ] }, "properties" : { "name" : "RTV: Gorzow Wielkopolski *Podmiejska*" } }, { "_id" : { "$oid" : "54a84fa866d8bd8d0faa3541" }, "type" : "Feature", "geometry" : { "type" : "Point", "coordinates" : [ 21.002500, 52.194170 ] }, "properties" : { "name" : "RTV: Warszawa *ul. Woloska*" } }, { "_id" : { "$oid" : "54a84fa866d8bd8d0faa35ac" }, "type" : "Feature", "geometry" : { "type" : "Point", "coordinates" : [ 18.953330, 51.779170 ] }, "properties" : { "name" : "RTV: Lodz *Zygry*" } }, { "_id" : { "$oid" : "54a84fa866d8bd8d0faa332b" }, "type" : "Feature", "geometry" : { "type" : "Point", "coordinates" : [ 15.230560, 52.738890 ] }, "properties" : { "name" : "RTV: Gorzow Wielkopolski *Budynek Urzedu Woj.*" } }, { "_id" : { "$oid" : "54a84fa866d8bd8d0faa3330" }, "type" : "Feature", "geometry" : { "type" : "Point", "coordinates" : [ 15.233330, 52.733330 ] }, "properties" : { "name" : "RTV: Gorzow Wielkopolski [miasto]" } }, { "_id" : { "$oid" : "54a84fa866d8bd8d0faa336d" }, "type" : "Feature", "geometry" : { "type" : "Point", "coordinates" : [ 18.091110, 51.782500 ] }, "properties" : { "name" : "RTV: Kalisz *Komin PPHU Alme*" } }, { "_id" : { "$oid" : "54a84fa866d8bd8d0faa34fb" }, "type" : "Feature", "geometry" : { "type" : "Point", "coordinates" : [ 14.571110, 53.354720 ] }, "properties" : { "name" : "RTV: Szczecin *Komin b.ZWCh Chemitex-Wiskord*" } }, { "_id" : { "$oid" : "54a84fa866d8bd8d0faa35bd" }, "type" : "Feature", "geometry" : { "type" : "Point", "coordinates" : [ 14.261110, 53.917220 ] }, "properties" : { "name" : "RTV: Swinoujscie *Chrobrego*" } }, { "_id" : { "$oid" : "54a84fa866d8bd8d0faa3291" }, "type" : "Feature", "geometry" : { "type" : "Point", "coordinates" : [ 22.986110, 53.834440 ] }, "properties" : { "name" : "RTV: Augustow *Komin MPEC GIGA*" } }, { "_id" : { "$oid" : "54a84fa866d8bd8d0faa332c" }, "type" : "Feature", "geometry" : { "type" : "Point", "coordinates" : [ 15.253890, 52.708330 ] }, "properties" : { "name" : "RTV: Gorzow Wielkopolski *Komin b. C Malorolnych*" } }, { "_id" : { "$oid" : "54a84fa866d8bd8d0faa332d" }, "type" : "Feature", "geometry" : { "type" : "Point", "coordinates" : [ 15.206390, 52.736670 ] }, "properties" : { "name" : "RTV: Gorzow Wielkopolski *Komin b. C Niemcewicza*" } }, { "_id" : { "$oid" : "54a84fa866d8bd8d0faa35be" }, "type" : "Feature", "geometry" : { "type" : "Point", "coordinates" : [ 14.247780, 53.908330 ] }, "properties" : { "name" : "RTV: Swinoujscie [miasto]" } }, { "_id" : { "$oid" : "54a84fa866d8bd8d0faa35aa" }, "type" : "Feature", "geometry" : { "type" : "Point", "coordinates" : [ 19.506940, 51.795280 ] }, "properties" : { "name" : "RTV: Lodz *ul. Brzezinska*" } }, { "_id" : { "$oid" : "54a84fa866d8bd8d0faa3535" }, "type" : "Feature", "geometry" : { "type" : "Point", "coordinates" : [ 21.012220, 52.153330 ] }, "properties" : { "name" : "RTV: Warszawa *Budynek Netia*" } }, { "_id" : { "$oid" : "54a84fa866d8bd8d0faa3412" }, "type" : "Feature", "geometry" : { "type" : "Point", "coordinates" : [ 22.790830, 53.404440 ] }, "properties" : { "name" : "RTV: Monki *Kosciol MB Cz. i sw. Kazimierza*" } }, { "_id" : { "$oid" : "54a84fa866d8bd8d0faa332e" }, "type" : "Feature", "geometry" : { "type" : "Point", "coordinates" : [ 15.135830, 52.745000 ] }, "properties" : { "name" : "RTV: Gorzow Wielkopolski *Komin b. ZM Ursus*" } }, { "_id" : { "$oid" : "54a84fa866d8bd8d0faa35a9" }, "type" : "Feature", "geometry" : { "type" : "Point", "coordinates" : [ 19.460830, 51.770280 ] }, "properties" : { "name" : "RTV: Lodz *Sienkiewicza*" } }, { "_id" : { "$oid" : "54a84fa866d8bd8d0faa35a3" }, "type" : "Feature", "geometry" : { "type" : "Point", "coordinates" : [ 19.463330, 51.768610 ] }, "properties" : { "name" : "RTV: Lodz *Budynek MODGiK*" } }, { "_id" : { "$oid" : "54a84fa866d8bd8d0faa35a4" }, "type" : "Feature", "geometry" : { "type" : "Point", "coordinates" : [ 19.462500, 51.768330 ] }, "properties" : { "name" : "RTV: Lodz *Budynek Textilimpex*" } }, { "_id" : { "$oid" : "54a84fa866d8bd8d0faa3540" }, "type" : "Feature", "geometry" : { "type" : "Point", "coordinates" : [ 21.044720, 52.144720 ] }, "properties" : { "name" : "RTV: Warszawa *ul. Dereniowa*" } }, { "_id" : { "$oid" : "54a84fa866d8bd8d0faa339d" }, "type" : "Feature", "geometry" : { "type" : "Point", "coordinates" : [ 19.300000, 51.747220 ] }, "properties" : { "name" : "RTV: Konstantynow Lodzki *Komin b.ZPW Konstilana*" } }, { "_id" : { "$oid" : "54a84fa866d8bd8d0faa35a1" }, "type" : "Feature", "geometry" : { "type" : "Point", "coordinates" : [ 19.460560, 51.758610 ] }, "properties" : { "name" : "RTV: Lodz *al. Pilsudskiego - Pekao*" } }, { "_id" : { "$oid" : "54a84fa866d8bd8d0faa35a2" }, "type" : "Feature", "geometry" : { "type" : "Point", "coordinates" : [ 19.460830, 51.758330 ] }, "properties" : { "name" : "RTV: Lodz *al. Pilsudskiego - SDM*" } }, { "_id" : { "$oid" : "54a84fa866d8bd8d0faa35ab" }, "type" : "Feature", "geometry" : { "type" : "Point", "coordinates" : [ 19.460280, 51.757780 ] }, "properties" : { "name" : "RTV: Lodz *ul. Piotrkowska*" } }, { "_id" : { "$oid" : "54a84fa866d8bd8d0faa3415" }, "type" : "Feature", "geometry" : { "type" : "Point", "coordinates" : [ 20.530000, 51.965560 ] }, "properties" : { "name" : "RTV: Mszczonow *Wieza Cisnien*" } }, { "_id" : { "$oid" : "54a84fa866d8bd8d0faa35a7" }, "type" : "Feature", "geometry" : { "type" : "Point", "coordinates" : [ 19.504170, 51.761110 ] }, "properties" : { "name" : "RTV: Lodz *Komin b. ZWCh Chemitex-Anilana*" } }, { "_id" : { "$oid" : "54a84fa866d8bd8d0faa353f" }, "type" : "Feature", "geometry" : { "type" : "Point", "coordinates" : [ 20.883060, 52.072780 ] }, "properties" : { "name" : "RTV: Warszawa *Raszyn*" } }, { "_id" : { "$oid" : "54a84fa866d8bd8d0faa35ad" }, "type" : "Feature", "geometry" : { "type" : "Point", "coordinates" : [ 19.466670, 51.750000 ] }, "properties" : { "name" : "RTV: Lodz [miasto]" } }, { "_id" : { "$oid" : "54a84fa866d8bd8d0faa35a5" }, "type" : "Feature", "geometry" : { "type" : "Point", "coordinates" : [ 19.450000, 51.746110 ] }, "properties" : { "name" : "RTV: Lodz *Dom Studenta nr 7 PL*" } }, { "_id" : { "$oid" : "54a84fa866d8bd8d0faa3418" }, "type" : "Feature", "geometry" : { "type" : "Point", "coordinates" : [ 14.866670, 52.916670 ] }, "properties" : { "name" : "RTV: Mysliborz [miasto]" } }, { "_id" : { "$oid" : "54a84fa866d8bd8d0faa35a8" }, "type" : "Feature", "geometry" : { "type" : "Point", "coordinates" : [ 19.537780, 51.745560 ] }, "properties" : { "name" : "RTV: Lodz *Komin EC-4*" } }, { "_id" : { "$oid" : "54a84fa866d8bd8d0faa336c" }, "type" : "Feature", "geometry" : { "type" : "Point", "coordinates" : [ 18.169170, 51.701390 ] }, "properties" : { "name" : "RTV: Kalisz *Chelmce*" } }, { "_id" : { "$oid" : "54a84fa866d8bd8d0faa336b" }, "type" : "Feature", "geometry" : { "type" : "Point", "coordinates" : [ 18.168330, 51.699170 ] }, "properties" : { "name" : "RTV: Kalisz *Chelmce - Kosciol*" } }, { "_id" : { "$oid" : "54a84fa866d8bd8d0faa3332" }, "type" : "Feature", "geometry" : { "type" : "Point", "coordinates" : [ 17.002500, 51.864440 ] }, "properties" : { "name" : "RTV: Gostyn *Spoldzielnia Mleczarska*" } }, { "_id" : { "$oid" : "54a84fa866d8bd8d0faa353d" }, "type" : "Feature", "geometry" : { "type" : "Point", "coordinates" : [ 20.883610, 52.037500 ] }, "properties" : { "name" : "RTV: Warszawa *Leszczynka*" } }, { "_id" : { "$oid" : "54a84fa866d8bd8d0faa35a6" }, "type" : "Feature", "geometry" : { "type" : "Point", "coordinates" : [ 19.458890, 51.713610 ] }, "properties" : { "name" : "RTV: Lodz *Komin b. ZEC Ustronna*" } }, { "_id" : { "$oid" : "54a84fa866d8bd8d0faa3468" }, "type" : "Feature", "geometry" : { "type" : "Point", "coordinates" : [ 21.024170, 52.075560 ] }, "properties" : { "name" : "RTV: Piaseczno [miasto]" } } ] }